agency_type_name,state_name,county_name,latitude,longitude
County,Hawaii,HAWAII,19.716698,-155.08688
County,Hawaii,MAUI,20.887321,-156.48763
County,Hawaii,KAUAI,22.012038,-159.705965
County,Delaware,NEW CASTLE,39.707096,-75.56667
County,Texas,WASHINGTON,30.17912,-96.388176
County,Texas,EDWARDS,29.985877000000002,-100.307373
County,Texas,MILAM,30.85512,-96.98046
County,Texas,MARION,32.798182000000004,-94.356853
County,Texas,WILSON,29.173883,-98.08673399999999
County,Texas,PALO PINTO,32.75221,-98.31797399999999
County,Texas,GARZA,33.198063,-101.382416
County,Texas,HARTLEY,35.840244,-102.610047
County,Texas,JACKSON,28.97839,-96.646736
County,Texas,BELL,31.042303000000004,-97.481374
County,Texas,BREWSTER,29.434357000000002,-95.24559
County,Texas,CAMERON,26.102923,-97.47895799999999
County,Texas,HOPKINS,33.139645,-95.59928000000001
County,Texas,NACOGDOCHES,31.610912,-94.68126
County,Texas,GRIMES,30.543231,-95.98808199999999
County,Texas,RANDALL,35.119816,-101.86604
County,Texas,NAVARRO,32.096070000000005,-96.46836
County,Texas,MARTIN,32.30983,-101.961836
County,Texas,WINKLER,31.831415000000003,-103.055986
County,Texas,GILLESPIE,30.250408,-98.84788499999999
County,Texas,WARD,31.592508000000002,-102.88987
County,Texas,ORANGE,30.120918,-93.89335799999999
County,Texas,RUSK,32.154736,-94.80015999999999
County,Texas,ECTOR,31.865301000000002,-102.542507
County,Texas,MIDLAND,31.870896000000002,-102.024326
County,Texas,HASKELL,33.175965000000005,-99.730773
County,Texas,BRAZOS,30.687794,-96.3732
County,Texas,RUNNELS,31.738207,-99.94529
County,Texas,HOOD,32.430149,-97.831677
County,Texas,GREGG,32.486397,-94.816276
County,Texas,CAMP,32.995636,-94.9661
County,Texas,BEXAR,29.429178000000004,-98.50717
County,Texas,ZAVALA,28.679815,-99.82764
County,Texas,HALE,34.1599,-101.70848000000001
County,Texas,MITCHELL,32.390095,-100.86946999999999
County,Texas,GLASSCOCK,31.868006,-101.52149399999999
County,Texas,BROOKS,27.034994,-98.215276
County,Texas,SABINE,31.3433,-93.851913
County,Texas,EASTLAND,32.402565,-98.81908
County,Texas,WILLACY,26.47072,-97.76458000000001
County,Texas,HOCKLEY,33.57934,-102.37784
County,Texas,OLDHAM,35.401921,-102.59761999999999
County,Texas,MORRIS,33.03609,-94.727
County,Texas,DEAF SMITH,34.817413,-102.39784
County,Texas,BLANCO,30.265604999999997,-98.399977
County,Texas,ZAPATA,26.996980999999998,-99.182603
County,Texas,SHELBY,31.790271999999998,-94.18486999999999
County,Texas,HARRIS,29.761494,-95.3576
County,Texas,SAN AUGUSTINE,31.382448999999998,-94.16318000000001
County,Texas,BORDEN,32.73859,-101.439199
County,Texas,MILLS,31.494888,-98.594623
County,Texas,WILLIAMSON,30.648024,-97.6788
County,Texas,CALLAHAN,32.29315,-99.372249
County,Texas,HARRISON,32.547990999999996,-94.374434
County,Texas,YOUNG,33.158787,-98.678267
County,Texas,DUVAL,27.681123,-98.497393
County,Texas,BRISCOE,34.525172,-101.205893
County,Texas,MOTLEY,34.057899,-100.793152
County,Texas,KENDALL,29.804724,-98.722595
County,Texas,GOLIAD,28.665903000000004,-97.3847
County,Texas,GUADALUPE,29.602009000000002,-97.97006
County,Texas,LAMAR,33.65229,-95.55757
County,Texas,SMITH,32.375106,-95.268743
County,Texas,BURLESON,30.526308,-96.70823
County,Texas,HUDSPETH,31.450868,-105.377549
County,Texas,BASTROP,30.102219,-97.30745999999999
County,Texas,HAMILTON,31.6949,-98.12756
County,Texas,TRAVIS,30.239513,-97.69126999999999
County,Texas,COLEMAN,31.831020000000002,-99.42296
County,Texas,MONTGOMERY,30.335955,-95.453255
County,Texas,FRIO,28.887709,-99.091835
County,Texas,MCLENNAN,31.554470000000002,-97.1364
County,Texas,DALLAS,32.766987,-96.778424
County,Texas,COLLIN,33.248084999999996,-96.635704
County,Texas,HUNT,33.13758,-96.10548
County,Texas,HALL,34.453189,-100.57634300000001
County,Texas,BANDERA,29.755681,-99.26059000000001
County,Texas,PARMER,34.532163,-102.784853
County,Texas,WILBARGER,34.084920000000004,-99.24244
County,Texas,BROWN,31.727455,-99.00188399999999
County,Texas,TOM GREEN,31.46255,-100.4414
County,Texas,MOORE,35.858677,-101.97188
County,Texas,WICHITA,33.991103,-98.716851
County,Texas,MCCULLOCH,31.205477000000002,-99.35985600000001
County,Texas,PECOS,30.770894000000002,-102.71986
County,Texas,DAWSON,32.741934,-101.947322
County,Texas,SHERMAN,36.277628,-101.894716
County,Texas,FREESTONE,31.701259999999998,-96.144487
County,Texas,MONTAGUE,33.678356,-97.725014
County,Texas,HARDIN,30.329612,-94.393149
County,Texas,PARKER,32.759190000000004,-97.787056
County,Texas,LAMPASAS,31.196731,-98.240889
County,Texas,TYLER,30.781633000000003,-94.415375
County,Texas,STARR,26.383215000000003,-98.8192
County,Texas,WHEELER,35.392593,-100.253107
County,Texas,KAUFMAN,32.598944,-96.28837800000001
County,Texas,HOWARD,32.303471,-101.438772
County,Texas,MADISON,30.961693,-95.892136
County,Texas,SOMERVELL,32.217942,-97.769211
County,Texas,BURNET,30.78963,-98.201187
County,Texas,PANOLA,32.15494,-94.341286
County,Texas,LAMB,33.917583,-102.32047
County,Texas,GALVESTON,29.303542999999998,-94.78815999999999
County,Texas,TRINITY,31.087483000000002,-95.15329100000001
County,Texas,COKE,31.877105,-100.63523599999999
County,Texas,CULBERSON,31.445908000000003,-104.526945
County,Texas,BAYLOR,33.587948,-99.261635
County,Texas,HANSFORD,36.272847,-101.35693
County,Texas,BEE,28.416077,-97.742586
County,Texas,HARDEMAN,34.289904,-99.74569699999999
County,Texas,DALLAM,36.06129,-102.5219
County,Texas,COCHRAN,33.7252,-102.75924
County,Texas,KARNES,28.885094,-97.90106
County,Texas,GAINES,32.719017,-102.642555
County,Texas,HOUSTON,31.31833,-95.46038
County,Texas,MCMULLEN,28.384921999999996,-98.57885300000001
County,Texas,ROCKWALL,32.898053999999995,-96.40439599999999
County,Texas,WHARTON,29.27848,-96.229674
County,Texas,CALDWELL,29.840062,-97.630394
County,Texas,ELLIS,32.388092,-96.844894
County,Texas,CROSBY,33.65887,-101.23943
County,Texas,CHILDRESS,34.529337,-100.208336
County,Texas,LOVING,31.844935999999997,-103.561229
County,Texas,KING,33.614159,-100.250548
County,Texas,UVALDE,29.211359,-99.78582
County,Texas,SCURRY,32.71602,-100.91133
County,Texas,ROBERTSON,31.025481,-96.51494100000001
County,Texas,JACK,33.232409999999994,-98.17188399999999
County,Texas,PRESIDIO,30.005891,-104.261619
County,Texas,WEBB,27.770584000000003,-99.32664100000001
County,Texas,CALHOUN,28.445365999999996,-96.5833
County,Texas,TERRY,33.171229,-102.33928399999999
County,Texas,LA SALLE,28.351097999999997,-99.096774
County,Texas,JONES,32.743709,-99.87443
County,Texas,COMAL,29.681767999999998,-98.15045
County,Texas,LLANO,30.707584000000004,-98.68469
County,Texas,CROCKETT,30.717532000000002,-101.404211
County,Texas,STEPHENS,32.755444,-98.903915
County,Texas,EL PASO,31.766403000000004,-106.24139
County,Texas,VAL VERDE,29.884960999999997,-101.14664599999999
County,Texas,CHEROKEE,31.806877000000004,-95.15124
County,Texas,SHACKELFORD,32.74382,-99.34700500000001
County,Texas,ROBERTS,35.836216,-100.80755500000001
County,Texas,COMANCHE,31.911995,-98.60174
County,Texas,STERLING,31.835774,-101.054911
County,Texas,LAVACA,29.382578000000002,-96.923633
County,Texas,MASON,30.703232,-99.237608
County,Texas,HILL,31.982681,-97.130668
County,Texas,JOHNSON,32.372623,-97.38898499999999
County,Texas,CRANE,31.422796,-102.487774
County,Texas,TERRELL,30.232332,-102.072539
County,Texas,ANDERSON,31.765324,-95.61932
County,Texas,COLLINGSWORTH,34.856037,-100.210915
County,Texas,UPSHUR,32.731873,-94.94445999999999
County,Texas,WOOD,32.783588,-95.382166
County,Texas,HUTCHINSON,35.837047,-101.362746
County,Texas,ERATH,32.212708,-98.19037
County,Texas,LYNN,33.178412,-101.818493
County,Texas,REFUGIO,28.312715999999998,-97.161366
County,Texas,TITUS,33.214599,-94.96678299999999
County,Texas,STONEWALL,33.17958,-100.253807
County,Texas,JIM WELLS,27.753183,-98.06999
County,Texas,LEE,30.321105,-96.976365
County,Texas,FRANKLIN,33.175846,-95.219066
County,Texas,POLK,30.723753000000002,-94.932846
County,Texas,COTTLE,34.091906,-100.276442
County,Texas,JIM HOGG,27.306555,-98.67707
County,Texas,IRION,31.303424,-100.98130400000001
County,Texas,UPTON,31.353849,-102.042013
County,Texas,REEVES,31.308365999999996,-103.71270600000001
County,Texas,LUBBOCK,33.611469,-101.81994399999999
County,Texas,LEON,31.300493,-95.995622
County,Texas,POTTER,35.398675,-101.893804
County,Texas,SUTTON,30.572646999999996,-100.6448
County,Texas,FALLS,31.251929999999998,-96.934127
County,Texas,CLAY,33.81556,-98.19413
County,Texas,ANDREWS,32.312258,-102.640206
County,Texas,THROCKMORTON,33.170712,-99.206137
County,Texas,COLORADO,29.706219,-96.55281
County,Texas,BOSQUE,31.900764000000002,-97.637632
County,Texas,HENDERSON,32.206593,-95.84668
County,Texas,JEFFERSON,30.079503999999996,-94.09442
County,Texas,TARRANT,32.755309999999994,-97.33483000000001
County,Texas,CASS,33.083698,-94.357579
County,Texas,SAN JACINTO,30.574388,-95.163137
County,Texas,RED RIVER,33.61365,-95.05185
County,Texas,NUECES,27.738128999999997,-97.51844100000001
County,Texas,DONLEY,34.955036,-100.815846
County,Texas,YOAKUM,33.162397999999996,-102.83224200000001
County,Texas,MEDINA,29.357111,-99.15548000000001
County,Texas,LIBERTY,30.162189,-94.822682
County,Texas,FANNIN,33.593708,-96.22702
County,Texas,KNOX,33.616657000000004,-99.747112
County,Texas,CORYELL,31.434006,-97.75149499999999
County,Texas,KENEDY,26.894147999999998,-97.586519
County,Texas,WALKER,30.742157000000002,-95.53279
County,Texas,ANGELINA,31.251951000000002,-94.611056
County,Texas,SWISHER,34.537178000000004,-101.76388
County,Texas,GONZALES,29.468704,-97.477738
County,Texas,TAYLOR,32.295054,-99.893644
County,Texas,KENT,33.184779999999996,-100.76971999999999
County,Texas,BOWIE,33.405632000000004,-94.04313
County,Texas,SAN PATRICIO,28.011785999999997,-97.517162
County,Texas,REAL,29.82303,-99.80530300000001
County,Texas,BAILEY,34.224266,-102.72718
County,Texas,LIMESTONE,31.51512,-96.51308
County,Texas,JEFF DAVIS,30.617341999999997,-104.187821
County,Texas,KLEBERG,27.438734999999998,-97.66062
County,Texas,ARANSAS,28.025509000000003,-97.0525
County,Texas,FAYETTE,29.924184999999998,-96.88121
County,Texas,WALLER,30.013578000000003,-95.982102
County,Texas,DIMMIT,28.521915000000003,-99.86046999999999
County,Texas,DELTA,33.374596000000004,-95.68959
County,Texas,REAGAN,31.372895,-101.513901
County,Texas,CHAMBERS,29.703933000000003,-94.668875
County,Texas,KERR,30.028692,-99.12321999999999
County,Texas,FORT BEND,29.574139000000002,-95.75133000000001
County,Texas,NEWTON,30.786718,-93.73925
County,Texas,JASPER,30.925835,-93.98865
County,Texas,LIPSCOMB,36.2802,-100.272683
County,Texas,HAYS,29.895283000000003,-97.90417
County,Texas,MENARD,30.884058000000003,-99.854623
County,Texas,AUSTIN,29.957651000000002,-96.26286999999999
County,Texas,ARCHER,33.616305,-98.687267
County,Texas,VAN ZANDT,32.56348,-95.875336
County,Texas,OCHILTREE,36.278744,-100.815864
County,Texas,GRAYSON,33.635303,-96.61016
County,Texas,KINNEY,29.347085999999997,-100.4177
County,Texas,CONCHO,31.318865000000002,-99.863648
County,Texas,MATAGORDA,28.980653999999998,-95.966286
County,Texas,HIDALGO,26.396384,-98.18099000000001
County,Texas,DICKENS,33.614666,-100.78609499999999
County,Texas,WISE,33.23077,-97.6118
County,Texas,FISHER,32.740473,-100.40312
County,Texas,BRAZORIA,29.248562,-95.4305
County,Texas,SAN SABA,31.195728000000003,-98.71464499999999
County,Texas,CARSON,35.405496,-101.355356
County,Texas,FOARD,33.963306,-99.816828
County,Texas,CASTRO,34.55095,-102.31234
County,Texas,LIVE OAK,28.351535,-98.126961
County,Texas,DENTON,33.21497,-97.11191600000001
County,Texas,HEMPHILL,35.816237,-100.284807
County,Texas,NOLAN,32.470993,-100.40895
County,Texas,KIMBLE,30.479471999999998,-99.74639599999999
County,Texas,ATASCOSA,28.917285999999997,-98.54415999999999
County,Texas,MAVERICK,28.745216999999997,-100.311368
County,Texas,GRAY,35.536471999999996,-100.96332
County,Texas,VICTORIA,28.79637,-96.971198
County,Texas,COOKE,33.639169,-97.21037199999999
County,Texas,ARMSTRONG,34.964179,-101.356636
County,Texas,RAINS,32.87058,-95.79544
County,Texas,DEWITT,29.092402000000003,-97.28901
County,Texas,SCHLEICHER,30.896233000000002,-100.52721600000001
County,Texas,FLOYD,34.07373,-101.303274
County,Maryland,PRINCE GEORGE'S,38.890705,-76.87062
County,Maryland,WORCESTER,38.176865,-75.39335
County,Maryland,FREDERICK,39.414253,-77.41244
County,Maryland,CAROLINE,38.887570000000004,-75.833626
County,Maryland,QUEEN ANNE'S,39.039867,-76.05774
County,Maryland,HOWARD,39.276688,-76.80677
County,Maryland,WASHINGTON,39.603621000000004,-77.81467099999999
County,Maryland,CALVERT,38.539024,-76.58306
County,Maryland,MONTGOMERY,39.104620000000004,-77.18817
County,Maryland,GARRETT,39.407803,-79.40711999999999
County,Maryland,BALTIMORE,39.400009999999995,-76.60850500000001
County,Maryland,MONTGOMERY,39.084175,-77.15236
County,Maryland,CECIL,39.562352000000004,-75.94158399999999
County,Maryland,SOMERSET,38.128025,-75.703735
County,Maryland,ANNE ARUNDEL,38.993373999999996,-76.560511
County,Maryland,ALLEGANY,39.666405,-78.76458000000001
County,Maryland,HOWARD,39.252264000000004,-76.924406
County,Maryland,ST MARY'S,38.220289,-76.530384
County,Maryland,BALTIMORE,39.40067,-76.59156999999999
County,Maryland,DORCHESTER,38.54878,-76.05912
County,Maryland,WICOMICO,38.36716,-75.63202700000001
County,Maryland,HARFORD,39.537428999999996,-76.299789
County,Maryland,TALBOT,38.77446,-76.0794
County,Maryland,CARROLL,39.572829999999996,-76.98601500000001
County,Maryland,ANNE ARUNDEL,38.993373999999996,-76.560511
County,Maryland,CHARLES,38.472853,-77.015427
County,Maryland,KENT,39.223495,-76.08744
County,Maine,YORK,43.427239,-70.670402
County,Maine,CUMBERLAND,43.652527,-70.28108
County,Maine,LINCOLN,43.994263000000004,-69.514038
County,Maine,WALDO,44.422432,-69.008995
County,Maine,ANDROSCOGGIN,44.097570000000005,-70.22608000000001
County,Maine,HANCOCK,44.542797,-68.42509
County,Maine,SOMERSET,44.78861,-69.88280999999999
County,Maine,PISCATAQUIS,45.182583,-69.22461
County,Maine,KNOX,44.101504999999996,-69.13289
County,Maine,AROOSTOOK,46.727057,-68.64941
County,Maine,WASHINGTON,44.715740000000004,-67.45957
County,Maine,OXFORD,44.4945,-70.734421
County,Maine,FRANKLIN,44.697308,-70.15805999999999
County,Maine,SAGADAHOC,43.911392,-69.819916
County,Maine,KENNEBEC,44.417012,-69.765764
County,Maine,PENOBSCOT,45.390602,-68.657487
County,Iowa,DELAWARE,42.473002,-91.359438
County,Iowa,FREMONT,40.743726,-95.59951600000001
County,Iowa,HENRY,40.985864,-91.54427
County,Iowa,WINNEBAGO,43.26245,-93.63843
County,Iowa,POWESHIEK,41.684526,-92.522882
County,Iowa,ADAIR,41.328528000000006,-94.478164
County,Iowa,JOHNSON,41.668735999999996,-91.588812
County,Iowa,TAYLOR,40.737949,-94.697108
County,Iowa,CLAY,43.079822,-95.149726
County,Iowa,MARSHALL,42.041691,-92.981452
County,Iowa,RINGGOLD,40.735334,-94.244251
County,Iowa,CEDAR,41.763645000000004,-91.12222
County,Iowa,LUCAS,41.033344,-93.331467
County,Iowa,PLYMOUTH,42.737584999999996,-96.215864
County,Iowa,WASHINGTON,41.329401000000004,-91.725052
County,Iowa,MONONA,42.02791,-96.09307
County,Iowa,SIOUX,43.017720000000004,-96.07656
County,Iowa,EMMET,43.40311,-94.83667
County,Iowa,AUDUBON,41.679178,-94.904312
County,Iowa,BREMER,42.726859999999995,-92.46566999999999
County,Iowa,IOWA,41.801066999999996,-92.07138
County,Iowa,WRIGHT,42.733007,-93.734735
County,Iowa,LEE,40.59004,-91.42757399999999
County,Iowa,GUTHRIE,41.67774,-94.50237
County,Iowa,CALHOUN,42.38617,-94.643683
County,Iowa,LYON,43.42843,-96.16946999999999
County,Iowa,HANCOCK,43.075410999999995,-93.743697
County,Iowa,CRAWFORD,42.043119,-95.38909
County,Iowa,ADAMS,41.021656,-94.69690600000001
County,Iowa,HOWARD,43.373245000000004,-92.11591
County,Iowa,GREENE,42.01419,-94.37344
County,Iowa,O'BRIEN,43.083746000000005,-95.625624
County,Iowa,UNION,41.059776,-94.36151
County,Iowa,DECATUR,40.740402,-93.74693
County,Iowa,MADISON,41.330622,-94.01518399999999
County,Iowa,WEBSTER,42.50398,-94.18831999999999
County,Iowa,JEFFERSON,41.01005,-91.97883
County,Iowa,CERRO GORDO,43.153835,-93.20268
County,Iowa,POCAHONTAS,42.734033000000004,-94.678279
County,Iowa,FAYETTE,42.86445,-91.839373
County,Iowa,HAMILTON,42.390768,-93.709198
County,Iowa,MITCHELL,43.28293,-92.812874
County,Iowa,CLINTON,41.851048,-90.18745
County,Iowa,JACKSON,42.06906,-90.66787
County,Iowa,BENTON,42.168690000000005,-92.02407
County,Iowa,SHELBY,41.657696,-95.31791
County,Iowa,GRUNDY,42.36142,-92.77399399999999
County,Iowa,KOSSUTH,43.06888,-94.238174
County,Iowa,BUTLER,42.734708000000005,-92.780066
County,Iowa,WORTH,43.444041999999996,-93.21828000000001
County,Iowa,OSCEOLA,43.4027,-95.74978
County,Iowa,MUSCATINE,41.424686,-91.044106
County,Iowa,MAHASKA,41.295334000000004,-92.64363
County,Iowa,KEOKUK,41.331182,-92.167721
County,Iowa,WOODBURY,42.496563,-96.40643
County,Iowa,CHEROKEE,42.74987,-95.55457
County,Iowa,POLK,41.58507,-93.62434
County,Iowa,FLOYD,43.06438,-92.68151999999999
County,Iowa,ALLAMAKEE,43.274964000000004,-91.382751
County,Iowa,JASPER,41.685686,-93.052971
County,Iowa,WAYNE,40.739983,-93.332613
County,Iowa,HUMBOLDT,42.721140000000005,-94.21348
County,Iowa,VAN BUREN,40.754117,-91.952943
County,Iowa,CASS,41.403965,-95.013145
County,Iowa,LOUISA,41.218211,-91.25699399999999
County,Iowa,SCOTT,41.52355,-90.57856
County,Iowa,MILLS,41.04678,-95.74180600000001
County,Iowa,CLAYTON,42.891697,-91.356926
County,Iowa,DAVIS,40.750652,-92.41525
County,Iowa,MONTGOMERY,41.00889,-95.23167
County,Iowa,DICKINSON,43.389611,-95.196057
County,Iowa,HARRISON,41.64289,-95.790474
County,Iowa,TAMA,42.074847999999996,-92.529411
County,Iowa,PAGE,40.740555,-95.03648000000001
County,Iowa,WAPELLO,41.016605,-92.40911
County,Iowa,BUENA VISTA,42.741521,-95.14143100000001
County,Iowa,BLACK HAWK,42.497097,-92.33356500000001
County,Iowa,BUCHANAN,42.469856,-91.88937
County,Iowa,JONES,42.108234,-91.29007
County,Iowa,POTTAWATTAMIE,41.28416,-95.86405
County,Iowa,FRANKLIN,42.736549,-93.271425
County,Iowa,WINNESHIEK,43.292989,-91.850788
County,Iowa,SAC,42.422047,-94.98867
County,Iowa,APPANOOSE,40.73496,-92.88444
County,Iowa,IDA,42.342564,-95.46847
County,Iowa,MARION,41.331455,-93.093849
County,Iowa,DES MOINES,40.81156,-91.10088
County,Iowa,CLARKE,41.029191,-93.78409599999999
County,Iowa,BOONE,42.05968,-93.87796999999999
County,Iowa,CARROLL,42.065514,-94.86695
County,Iowa,LINN,42.077951,-91.597674
County,Iowa,WARREN,41.336769,-93.564366
County,Iowa,PALO ALTO,43.075854,-94.667296
County,Iowa,DUBUQUE,42.463481,-90.878771
County,Iowa,CHICKASAW,43.059740999999995,-92.31721
County,Iowa,DALLAS,41.685321,-94.040707
County,Iowa,MONROE,41.025253,-92.809685
County,Iowa,HARDIN,42.359776000000004,-93.0973
County,Iowa,STORY,42.037538,-93.466093
County,Idaho,ADA,43.60671,-116.26885
County,Idaho,KOOTENAI,47.677113,-116.69491799999999
County,Idaho,ONEIDA,42.186516,-112.244606
County,Idaho,JEFFERSON,43.679657,-111.91145
County,Idaho,WASHINGTON,44.246829999999996,-116.96586599999999
County,Idaho,CLEARWATER,46.67257,-115.6535
County,Idaho,TWIN FALLS,42.352309000000005,-114.66563899999998
County,Idaho,PAYETTE,44.07812,-116.93003999999999
County,Idaho,BOISE,43.987275,-115.71511000000001
County,Idaho,BOUNDARY,48.773065,-116.524619
County,Idaho,GOODING,42.939296999999996,-114.712845
County,Idaho,BENEWAH,47.315243,-116.56676000000002
County,Idaho,CANYON,43.66518,-116.68236999999999
County,Idaho,LEWIS,46.23299,-116.24048
County,Idaho,FREMONT,44.218090999999994,-111.484429
County,Idaho,CASSIA,42.535472999999996,-113.79283000000001
County,Idaho,BANNOCK,42.692938,-112.228986
County,Idaho,LATAH,46.81892,-116.730974
County,Idaho,ELMORE,43.137493,-115.67231000000001
County,Idaho,MADISON,43.82606,-111.77962
County,Idaho,BONNEVILLE,43.494877,-112.04055
County,Idaho,CUSTER,44.273340999999995,-114.252251
County,Idaho,ADAMS,44.884583,-116.431873
County,Idaho,NEZ PERCE,46.333766,-116.760903
County,Idaho,JEROME,42.726112,-114.518456
County,Idaho,BONNER,48.307823,-116.55705
County,Idaho,POWER,42.782623,-112.848564
County,Idaho,BUTTE,43.6851,-113.177627
County,Idaho,IDAHO,45.926365000000004,-116.12266499999998
County,Idaho,VALLEY,44.771531,-115.637875
County,Idaho,TETON,43.760994000000004,-111.21176499999999
County,Idaho,BLAINE,43.394482,-113.95528999999999
County,Idaho,OWYHEE,42.593063,-116.142655
County,Idaho,GEM,43.875609999999995,-116.495476
County,Idaho,SHOSHONE,47.471626,-115.92217
County,Idaho,CARIBOU,42.65466,-111.5894
County,Idaho,LINCOLN,42.93367,-114.40767
County,Idaho,BINGHAM,43.194084000000004,-112.34408
County,Idaho,LEMHI,44.928789,-113.887841
County,Idaho,CAMAS,43.463396,-114.804427
County,Idaho,CLARK,44.286251,-112.36112
County,Idaho,BEAR LAKE,42.285833000000004,-111.327445
County,Idaho,FRANKLIN,42.096275,-111.87773
County,Idaho,MINIDOKA,42.856937,-113.64001
County,Michigan,SAGINAW,43.41693,-83.96713000000001
County,Michigan,OTTAWA,42.942818,-86.08693000000001
County,Michigan,SANILAC,43.422309999999996,-82.83037
County,Michigan,TUSCOLA,43.490463,-83.39265400000001
County,Michigan,WAYNE,42.284664,-83.261953
County,Michigan,MENOMINEE,45.107777,-87.61249000000001
County,Michigan,LENAWEE,41.902657,-84.03566
County,Michigan,OCEANA,43.647255,-86.807575
County,Michigan,GENESEE,43.011513,-83.686874
County,Michigan,DICKINSON,46.012823,-87.866119
County,Michigan,LAKE,43.995187,-85.8114
County,Michigan,KALKASKA,44.678881,-85.088992
County,Michigan,ISABELLA,43.60544,-84.77493
County,Michigan,MONROE,41.914288,-83.39771
County,Michigan,ALPENA,45.079895,-83.44955
County,Michigan,MUSKEGON,43.235233,-86.24446999999999
County,Michigan,CLINTON,42.986779999999996,-84.53433000000001
County,Michigan,BARAGA,46.757862,-88.45249
County,Michigan,BENZIE,44.624905,-86.09527
County,Michigan,CHEBOYGAN,45.47612,-84.495271
County,Michigan,MARQUETTE,46.656628999999995,-87.58398199999999
County,Michigan,MACKINAC,46.167981,-85.303756
County,Michigan,BAY,43.608883,-83.85207
County,Michigan,CALHOUN,42.31573,-85.17698
County,Michigan,CLARE,44.029540000000004,-85.031235
County,Michigan,EMMET,45.375890000000005,-84.95331
County,Michigan,HILLSDALE,41.929173,-84.62812
County,Michigan,IRON,46.096672,-88.334755
County,Michigan,WEXFORD,44.245483,-85.3864
County,Michigan,MISSAUKEE,44.325424,-85.085471
County,Michigan,OAKLAND,42.660452,-83.38421
County,Michigan,WASHTENAW,42.256195,-83.68075999999999
County,Michigan,ALLEGAN,42.527992,-85.8526
County,Michigan,KEWEENAW,47.412884000000005,-88.29463
County,Michigan,SCHOOLCRAFT,46.020758,-86.199352
County,Michigan,MONTCALM,43.30014,-85.084816
County,Michigan,GLADWIN,43.980717,-84.49223
County,Michigan,ALCONA,44.65648,-83.296844
County,Michigan,ST JOSEPH,41.911488,-85.52287
County,Michigan,OGEMAW,44.33328,-84.128073
County,Michigan,GRAND TRAVERSE,44.752533,-85.607414
County,Michigan,IONIA,42.98196,-85.0616
County,Michigan,OTSEGO,45.027103000000004,-84.67586
County,Michigan,HURON,43.80161,-82.99895
County,Michigan,OSCEOLA,43.875935,-85.514725
County,Michigan,PRESQUE ISLE,45.421837,-83.81644
County,Michigan,ALGER,46.40748,-86.65890999999999
County,Michigan,ANTRIM,45.005455,-85.175639
County,Michigan,CHIPPEWA,46.498413,-84.345535
County,Michigan,EATON,42.589614000000005,-84.846524
County,Michigan,JACKSON,42.244713,-84.40929
County,Michigan,LIVINGSTON,42.612854,-83.95397
County,Michigan,LAPEER,43.034912,-83.352104
County,Michigan,MASON,43.95793,-86.44363
County,Michigan,MIDLAND,43.622696000000005,-84.22845500000001
County,Michigan,MACOMB,42.615916999999996,-82.886955
County,Michigan,CRAWFORD,44.659943,-84.71715
County,Michigan,MECOSTA,43.696682,-85.4789
County,Michigan,MANISTEE,44.272842,-86.27059
County,Michigan,BERRIEN,42.10951,-86.47704
County,Michigan,CASS,41.91624,-85.99945799999999
County,Michigan,BARRY,42.64864,-85.30355
County,Michigan,LUCE,46.352745,-85.51368000000001
County,Michigan,CHARLEVOIX,45.310783,-85.26409
County,Michigan,BRANCH,41.918585,-85.066523
County,Michigan,GOGEBIC,46.481934,-90.05244
County,Michigan,DELTA,45.746346,-87.0506
County,Michigan,ARENAC,44.03687,-83.740675
County,Michigan,LEELANAU,45.146182,-86.051574
County,Michigan,MONTMORENCY,45.007317,-84.17164
County,Michigan,VAN BUREN,42.2187,-85.89084
County,Michigan,KALAMAZOO,42.277347999999996,-85.54824
County,Michigan,SHIAWASSEE,42.980907,-84.11646999999999
County,Michigan,NEWAYGO,43.562709000000005,-85.791423
County,Michigan,KENT,42.976032000000004,-85.63003499999999
County,Michigan,IOSCO,44.329482,-82.849447
County,Michigan,ST CLAIR,42.942479999999996,-82.48136
County,Michigan,HOUGHTON,46.998196,-88.651984
County,Michigan,ROSCOMMON,44.339517,-84.611271
County,Michigan,ONTONAGON,46.875,-89.31675
County,Michigan,OSCODA,44.685121,-84.124894
County,Michigan,GRATIOT,43.292326,-84.60469
County,Michigan,INGHAM,42.588882,-84.45707
County,Utah,SUMMIT,40.87206,-110.96848600000001
County,Utah,MILLARD,39.09454,-113.52501399999998
County,Utah,DAVIS,41.037045,-112.202123
County,Utah,CARBON,39.599594,-110.81505600000001
County,Utah,PIUTE,38.335881,-112.129375
County,Utah,WEBER,41.244186,-111.96058000000001
County,Utah,BOX ELDER,41.476021,-113.052922
County,Utah,SANPETE,39.380588,-111.570451
County,Utah,WASHINGTON,37.262531,-113.4878
County,Utah,SAN JUAN,37.623082000000004,-109.789344
County,Utah,BEAVER,38.357535,-113.238948
County,Utah,GRAND,38.573288,-109.548294
County,Utah,RICH,41.627598,-111.240227
County,Utah,EMERY,39.009025,-110.7211
County,Utah,JUAB,39.713564,-112.79120800000001
County,Utah,UTAH,40.120409,-111.668667
County,Utah,DAGGETT,40.890099,-109.505785
County,Utah,TOOELE,40.529606,-112.29857
County,Utah,SEVIER,38.746824,-111.81193
County,Utah,KANE,37.049440000000004,-112.5285
County,Utah,CACHE,41.734225,-111.74458100000001
County,Utah,MORGAN,41.091027000000004,-111.57788500000001
County,Utah,WAYNE,38.261229,-110.99032199999999
County,Utah,GARFIELD,37.831674,-111.450898
County,Utah,SALT LAKE,40.698353000000004,-111.86546000000001
County,Utah,WASATCH,40.528603000000004,-111.40938
County,Utah,DUCHESNE,40.289649,-110.42983000000001
County,Utah,IRON,37.716972,-113.0595
County,Utah,UINTAH,40.45717,-109.52571
County,Minnesota,POLK,47.774254,-96.40002700000001
County,Minnesota,PIPESTONE,44.015361,-96.257015
County,Minnesota,KOOCHICHING,48.601665000000004,-93.41001
County,Minnesota,NICOLLET,44.358819,-94.245685
County,Minnesota,ROCK,43.669587,-96.263238
County,Minnesota,WATONWAN,43.978365999999994,-94.61412800000001
County,Minnesota,BELTRAMI,47.473827,-94.88276
County,Minnesota,CHISAGO,45.399975,-92.82249499999999
County,Minnesota,DOUGLAS,45.884743,-95.37578
County,Minnesota,HOUSTON,43.632355,-91.49589
County,Minnesota,STEVENS,45.593461,-95.992315
County,Minnesota,ROSEAU,48.840744,-95.76833
County,Minnesota,DAKOTA,44.670893,-93.062481
County,Minnesota,WILKIN,46.362334999999995,-96.47665699999999
County,Minnesota,KITTSON,48.7724,-96.94005
County,Minnesota,NOBLES,43.677686,-95.763132
County,Minnesota,DODGE,44.020706,-92.869353
County,Minnesota,BECKER,46.937629,-95.74175699999999
County,Minnesota,HUBBARD,46.9195,-95.06307
County,Minnesota,STEELE,44.015260999999995,-93.220453
County,Minnesota,CLAY,46.898377,-96.494901
County,Minnesota,KANDIYOHI,45.152714,-95.004981
County,Minnesota,ST LOUIS,46.781807,-92.103836
County,Minnesota,GRANT,45.930743,-96.010699
County,Minnesota,TODD,45.972815999999995,-94.86059
County,Minnesota,BIG STONE,45.419925,-96.402226
County,Minnesota,MORRISON,46.020484,-94.26661899999999
County,Minnesota,CASS,46.951786,-94.33367
County,Minnesota,NORMAN,47.297764,-96.51433
County,Minnesota,WASECA,44.01846,-93.589844
County,Minnesota,RAMSEY,45.01525,-93.10014100000001
County,Minnesota,KANABEC,45.947759999999995,-93.297788
County,Minnesota,SWIFT,45.316544,-95.60073
County,Minnesota,WASHINGTON,45.037929,-92.890117
County,Minnesota,MILLE LACS,45.753426,-93.643036
County,Minnesota,BENTON,45.701225,-94.001439
County,Minnesota,CHIPPEWA,44.95065,-95.71358000000001
County,Minnesota,OLMSTED,44.019302,-92.46084599999999
County,Minnesota,POPE,45.650215,-95.38795
County,Minnesota,HENNEPIN,44.987347,-93.249756
County,Minnesota,BROWN,44.246541,-94.73364699999999
County,Minnesota,FREEBORN,43.64584,-93.368675
County,Minnesota,COOK,47.75116,-90.34013
County,Minnesota,WABASHA,44.289693,-92.23334
County,Minnesota,LE SUEUR,44.39112,-93.73154
County,Minnesota,MEEKER,45.12897,-94.52956400000001
County,Minnesota,LAKE OF THE WOODS,48.709666999999996,-94.585075
County,Minnesota,OTTER TAIL,46.405725,-95.714578
County,Minnesota,REDWOOD,44.403535999999995,-95.25424100000001
County,Minnesota,JACKSON,43.671110999999996,-95.149731
County,Minnesota,LINCOLN,44.408238,-96.272032
County,Minnesota,BLUE EARTH,44.03371,-94.064012
County,Minnesota,GOODHUE,44.406178000000004,-92.71600000000001
County,Minnesota,TRAVERSE,45.806145,-96.49276
County,Minnesota,CARVER,44.788643,-93.594
County,Minnesota,WADENA,46.437492,-95.1396
County,Minnesota,RED LAKE,47.865487,-96.08718
County,Minnesota,MARTIN,43.653633,-94.46469
County,Minnesota,ITASCA,47.490883000000004,-93.61111899999999
County,Minnesota,PENNINGTON,48.069247,-96.037725
County,Minnesota,WINONA,44.053490000000004,-91.640564
County,Minnesota,LYON,44.450565000000005,-95.7939
County,Minnesota,MOWER,43.667496,-92.9736
County,Minnesota,FARIBAULT,43.676522,-93.947234
County,Minnesota,RENVILLE,44.77644,-94.9826
County,Minnesota,CROW WING,46.355774,-94.20515400000001
County,Minnesota,SCOTT,44.79633,-93.52763
County,Minnesota,STEARNS,45.560402,-94.16285
County,Minnesota,ISANTI,45.556995,-93.22933
County,Minnesota,LAC QUI PARLE,45.014355,-96.1932
County,Minnesota,CLEARWATER,47.575873,-95.371117
County,Minnesota,MARSHALL,48.19572,-96.76906600000001
County,Minnesota,PINE,45.852814,-92.96829
County,Minnesota,ANOKA,45.197933,-93.38671
County,Minnesota,COTTONWOOD,43.8655,-95.11915
County,Minnesota,CARLTON,46.603818,-92.671044
County,Minnesota,MCLEOD,44.769079999999995,-94.15163000000001
County,Minnesota,WRIGHT,45.175090999999995,-93.966396
County,Minnesota,MURRAY,44.015594,-95.761581
County,Minnesota,FILLMORE,43.677255,-92.093644
County,Minnesota,SHERBURNE,45.306267,-93.62071999999999
County,Minnesota,RICE,44.350943,-93.298503
County,Minnesota,SIBLEY,44.575734000000004,-94.23012299999999
County,Minnesota,LAKE,47.021786,-91.67129
County,Minnesota,MAHNOMEN,47.325842,-95.810703
County,Minnesota,YELLOW MEDICINE,44.809624,-95.5441
County,Minnesota,AITKIN,46.53333,-93.71042
County,Missouri,PULASKI,37.824835,-92.207022
County,Missouri,MONROE,39.48253,-92.00016
County,Missouri,ST CLAIR,38.039069,-93.773076
County,Missouri,OZARK,36.64959,-92.458549
County,Missouri,WASHINGTON,37.93646,-90.788124
County,Missouri,MADISON,37.56045,-90.29444000000001
County,Missouri,CALLAWAY,38.835676,-91.92410699999999
County,Missouri,GENTRY,40.248596,-94.33315
County,Missouri,BARTON,37.495087,-94.27903
County,Missouri,STODDARD,36.855428,-89.941735
County,Missouri,MONTGOMERY,38.978970000000004,-91.50465
County,Missouri,CLARK,40.424717,-91.71811
County,Missouri,LACLEDE,37.6827,-92.66453
County,Missouri,OSAGE,38.464253,-91.859504
County,Missouri,PUTNAM,40.476955,-93.00200000000001
County,Missouri,MACON,39.829795000000004,-92.56434
County,Missouri,WAYNE,37.113825,-90.460868
County,Missouri,CAMDEN,38.006332,-92.744865
County,Missouri,ST CHARLES,38.781102000000004,-90.674915
County,Missouri,MORGAN,38.431595,-92.84076999999999
County,Missouri,LAFAYETTE,39.185898,-93.88218
County,Missouri,GASCONADE,38.70698,-91.43701999999999
County,Missouri,CHRISTIAN,37.01993,-93.20503000000001
County,Missouri,BARRY,36.677483,-93.868126
County,Missouri,BENTON,38.301035999999996,-93.287942
County,Missouri,WEBSTER,37.338566,-92.906296
County,Missouri,RIPLEY,36.617596,-90.82849
County,Missouri,CRAWFORD,37.96656,-91.31393299999999
County,Missouri,SALINE,39.13584,-93.204164
County,Missouri,LAWRENCE,37.102707,-93.81838
County,Missouri,CHARITON,39.43295,-92.9416
County,Missouri,MARION,39.7857,-91.515366
County,Missouri,VERNON,37.850196000000004,-94.341597
County,Missouri,BUTLER,36.71518,-90.40313
County,Missouri,PERRY,37.71113,-89.802125
County,Missouri,FRANKLIN,38.459488,-90.9924
County,Missouri,PLATTE,39.372177,-94.780914
County,Missouri,GRUNDY,40.073933000000004,-93.61835500000001
County,Missouri,WORTH,40.480428,-94.419067
County,Missouri,HARRISON,40.345620000000004,-93.992582
County,Missouri,POLK,37.612648,-93.410904
County,Missouri,BATES,38.257217,-94.339246
County,Missouri,TEXAS,37.314257,-91.964478
County,Missouri,CALDWELL,39.658998,-93.979179
County,Missouri,MARIES,38.162615,-91.923601
County,Missouri,CEDAR,37.733655,-93.850014
County,Missouri,LEWIS,40.119358,-91.7148
County,Missouri,SCHUYLER,40.469361,-92.51901600000001
County,Missouri,REYNOLDS,37.360857,-90.969516
County,Missouri,DADE,37.415034999999996,-93.83943000000001
County,Missouri,PEMISCOT,36.209916,-89.785942
County,Missouri,DUNKLIN,36.153025,-90.06225400000001
County,Missouri,JEFFERSON,38.257414000000004,-90.543138
County,Missouri,COLE,38.503233,-92.280027
County,Missouri,DOUGLAS,36.946517,-92.51589200000001
County,Missouri,HENRY,38.37072,-93.77608000000001
County,Missouri,LINCOLN,38.97115,-90.96279
County,Missouri,TANEY,36.649827,-93.042819
County,Missouri,SCOTLAND,40.45912,-92.16938
County,Missouri,PHELPS,37.94536,-91.77269
County,Missouri,JASPER,37.09708,-94.38589499999999
County,Missouri,WRIGHT,37.267635999999996,-92.48001
County,Missouri,BOONE,39.004833000000005,-92.304825
County,Missouri,MILLER,38.21672,-92.42987099999999
County,Missouri,DENT,37.64598,-91.53612
County,Missouri,BOLLINGER,37.305595000000004,-89.97046
County,Missouri,SULLIVAN,40.202194,-93.12458000000001
County,Missouri,HICKORY,37.9367,-93.322834
County,Missouri,LINN,39.86444,-93.108019
County,Missouri,COOPER,38.97756,-92.744385
County,Missouri,SCOTT,37.047793,-89.56809799999999
County,Missouri,BUCHANAN,39.769040000000004,-94.85424
County,Missouri,MERCER,40.397152,-93.58605
County,Missouri,PIKE,39.339959,-91.171607
County,Missouri,STE GENEVIEVE,37.968,-90.05516999999999
County,Missouri,JACKSON,39.007233,-94.342507
County,Missouri,MISSISSIPPI,36.923393,-89.34919000000001
County,Missouri,CLAY,39.24592,-94.41945
County,Missouri,MCDONALD,36.630218,-94.343956
County,Missouri,LIVINGSTON,39.794290000000004,-93.55484
County,Missouri,STONE,36.747857,-93.467782
County,Missouri,CAPE GIRARDEAU,37.383873,-89.668655
County,Missouri,ADAIR,40.193413,-92.58315999999999
County,Missouri,HOLT,40.095724,-95.219072
County,Missouri,RALLS,39.553455,-91.524787
County,Missouri,OREGON,36.684867,-91.402902
County,Missouri,DEKALB,39.894665,-94.40719
County,Missouri,NEW MADRID,36.594260999999996,-89.655948
County,Missouri,IRON,37.598009999999995,-90.62873
County,Missouri,AUDRAIN,39.167429999999996,-91.81975600000001
County,Missouri,WARREN,38.81114,-91.1489
County,Missouri,CASS,38.647159,-94.354242
County,Missouri,SHANNON,37.15198,-91.398364
County,Missouri,CLINTON,39.565792,-94.447174
County,Missouri,CARROLL,39.427375,-93.500227
County,Missouri,ST FRANCOIS,37.7649,-90.43970999999999
County,Missouri,JOHNSON,38.765156,-93.74186
County,Missouri,MONITEAU,38.63693,-92.56578
County,Missouri,NODAWAY,40.348859999999995,-94.87048
County,Missouri,DAVIESS,39.935947,-94.06763000000001
County,Missouri,ANDREW,39.940459999999995,-94.82884
County,Missouri,HOWARD,39.146570000000004,-92.68159
County,Missouri,RANDOLPH,39.441601,-92.492724
County,Missouri,PETTIS,38.708054,-93.22697
County,Missouri,RAY,39.23964,-93.94057
County,Missouri,GREENE,37.218906,-93.29229000000001
County,Missouri,DALLAS,37.642555,-93.09061
County,Missouri,NEWTON,36.8727,-94.36686999999999
County,Missouri,HOWELL,36.742515999999995,-91.87043
County,Missouri,ATCHISON,40.431846,-95.437555
County,Missouri,SHELBY,39.797531,-92.088719
County,Missouri,ST LOUIS,38.650246,-90.33834
County,Missouri,KNOX,40.136776,-92.14680899999999
County,Missouri,CARTER,36.944783,-90.945626
County,Illinois,CHRISTIAN,39.545524,-89.279593
County,Illinois,MENARD,40.022569,-89.794133
County,Illinois,ST CLAIR,38.520804999999996,-89.99118
County,Illinois,MCLEAN,40.47869,-88.993706
County,Illinois,PIATT,40.009056,-88.59232800000001
County,Illinois,BOND,38.8887,-89.41244499999999
County,Illinois,CLARK,39.39111,-87.69749499999999
County,Illinois,TAZEWELL,40.56861,-89.64919
County,Illinois,MCHENRY,42.324298,-88.45224499999999
County,Illinois,PERRY,38.08011,-89.38183599999999
County,Illinois,LAKE,42.359196000000004,-87.83389
County,Illinois,MERCER,41.200016,-90.75876
County,Illinois,SALINE,37.738403000000005,-88.54032
County,Illinois,ALEXANDER,37.004906,-89.175995
County,Illinois,ADAMS,39.934517,-91.40799
County,Illinois,PEORIA,40.689167,-89.69381
County,Illinois,UNION,37.452335,-89.26823
County,Illinois,MACOUPIN,39.2659,-89.926344
County,Illinois,WINNEBAGO,42.26688,-89.08555600000001
County,Illinois,MASON,40.236993,-89.913575
County,Illinois,DEWITT,40.153603000000004,-88.96184000000001
County,Illinois,OGLE,42.0132,-89.32886500000001
County,Illinois,MASSAC,37.152390000000004,-88.73259
County,Illinois,DOUGLAS,39.766078,-88.222866
County,Illinois,VERMILION,40.122528,-87.62982
County,Illinois,MACON,39.839240000000004,-88.95295
County,Illinois,WILLIAMSON,37.732240000000004,-88.928375
County,Illinois,PULASKI,37.215615,-89.12775500000001
County,Illinois,BUREAU,41.36806,-89.46644599999999
County,Illinois,GREENE,39.300957000000004,-90.41074
County,Illinois,KANKAKEE,41.139509999999994,-87.86111700000001
County,Illinois,PUTNAM,41.19894,-89.298386
County,Illinois,MARION,38.627945000000004,-88.94461
County,Illinois,CALHOUN,39.164262,-90.66629499999999
County,Illinois,GALLATIN,37.768677000000004,-88.227964
County,Illinois,WOODFORD,40.789596,-89.210301
County,Illinois,KANE,41.939594,-88.42804
County,Illinois,MARSHALL,41.025284,-89.40737
County,Illinois,MADISON,38.81176,-89.95985999999999
County,Illinois,BROWN,39.98675,-90.76378000000001
County,Illinois,KNOX,40.945683,-90.36636
County,Illinois,HAMILTON,38.094044,-88.53508000000001
County,Illinois,POPE,37.417169,-88.542374
County,Illinois,DEKALB,41.98908,-88.68437
County,Illinois,KENDALL,41.656876000000004,-88.46226
County,Illinois,BOONE,42.264786,-88.84539000000001
County,Illinois,GRUNDY,41.356472,-88.42147
County,Illinois,PIKE,39.607914,-90.80445
County,Illinois,CUMBERLAND,39.273121,-88.240619
County,Illinois,HANCOCK,40.416164,-91.145424
County,Illinois,FAYETTE,38.960464,-89.098946
County,Illinois,WHITE,38.090885,-88.15887
County,Illinois,JERSEY,39.11914,-90.328636
County,Illinois,LA SALLE,41.373622999999995,-88.82672
County,Illinois,STEPHENSON,42.29775,-89.62200000000001
County,Illinois,FORD,40.46337,-88.09997
County,Illinois,LAWRENCE,38.726986,-87.68441999999999
County,Illinois,CRAWFORD,39.00373,-87.757172
County,Illinois,HARDIN,37.517852000000005,-88.266148
County,Illinois,JEFFERSON,38.31462,-88.90245
County,Illinois,WHITESIDE,41.810158,-89.96465
County,Illinois,STARK,41.096908,-89.797411
County,Illinois,HENDERSON,40.815141,-90.93848
County,Illinois,RANDOLPH,37.90338,-89.828255
County,Illinois,SHELBY,39.407265,-88.792076
County,Illinois,JOHNSON,37.460709,-88.882131
County,Illinois,CARROLL,42.100468,-89.978806
County,Illinois,COOK,41.894294,-87.645455
County,Illinois,JO DAVIESS,42.4143,-90.4307
County,Illinois,SCOTT,39.549507,-90.479546
County,Illinois,CASS,39.951588,-90.210526
County,Illinois,HENRY,41.350021000000005,-90.130838
County,Illinois,COLES,39.493759999999995,-88.17438
County,Illinois,MORGAN,39.734943,-90.23154
County,Illinois,MOULTRIE,39.636896,-88.625726
County,Illinois,LOGAN,40.146095,-89.359406
County,Illinois,IROQUOIS,40.771248,-87.71966
County,Illinois,SCHUYLER,40.120616999999996,-90.56387
County,Illinois,CLINTON,38.61018,-89.36788
County,Illinois,DUPAGE,41.860473999999996,-88.14256999999999
County,Illinois,FULTON,40.397273999999996,-90.15704000000001
County,Illinois,WABASH,38.40964,-87.760704
County,Illinois,SANGAMON,39.756342,-89.662306
County,Illinois,MCDONOUGH,40.458607,-90.67328
County,Illinois,CLAY,38.747312,-88.483789
County,Illinois,WILL,41.524975,-88.08112
County,Illinois,EDGAR,39.679037,-87.74710999999999
County,Illinois,JASPER,38.991962,-88.16041
County,Illinois,JACKSON,37.786096,-89.381212
County,Illinois,FRANKLIN,37.991848,-88.92624599999999
County,Illinois,WARREN,40.850441,-90.620223
County,Illinois,WASHINGTON,38.344916999999995,-89.38292
County,Illinois,LEE,41.841206,-89.48305
County,Illinois,EDWARDS,38.377003,-88.05676
County,Illinois,MONROE,38.277983,-90.179078
County,Illinois,RICHLAND,38.73044,-88.08570999999999
County,Illinois,WAYNE,38.380383,-88.35778
County,Illinois,LIVINGSTON,40.871796,-88.6393
County,Illinois,EFFINGHAM,39.121414,-88.542076
County,Illinois,CHAMPAIGN,40.112507,-88.20559
County,Illinois,MONTGOMERY,39.162067,-89.49341
County,Illinois,ROCK ISLAND,41.508713,-90.58131999999999
County,Indiana,RIPLEY,39.100229999999996,-85.260541
County,Indiana,SULLIVAN,39.09564,-87.405846
County,Indiana,RUSH,39.60758,-85.4443
County,Indiana,MONTGOMERY,40.040296000000005,-86.892715
County,Indiana,JAY,40.432327,-84.979485
County,Indiana,WABASH,40.843717,-85.795175
County,Indiana,BOONE,40.031673,-86.45087
County,Indiana,HANCOCK,39.785263,-85.7681
County,Indiana,PERRY,38.081436,-86.62654
County,Indiana,DEARBORN,39.090332000000004,-84.85051
County,Indiana,LAKE,41.44919,-87.36488
County,Indiana,WARREN,40.2884,-87.29324
County,Indiana,PARKE,39.77425,-87.19695
County,Indiana,JASPER,41.017688,-87.118814
County,Indiana,ST JOSEPH,41.665079999999996,-86.25508
County,Indiana,FOUNTAIN,40.121237,-87.234872
County,Indiana,MORGAN,39.428463,-86.43791999999999
County,Indiana,BLACKFORD,40.450379999999996,-85.27664
County,Indiana,FLOYD,38.284374,-85.82468399999999
County,Indiana,DECATUR,39.334103000000006,-85.48897
County,Indiana,STEUBEN,41.643437,-85.00246700000001
County,Indiana,OWEN,39.28902,-86.77273000000001
County,Indiana,ADAMS,40.8274,-84.922035
County,Indiana,LAGRANGE,41.62806,-85.41617600000001
County,Indiana,MIAMI,40.793068,-86.09387
County,Indiana,WARRICK,38.097764,-87.272023
County,Indiana,PUTNAM,39.665544,-86.853325
County,Indiana,SCOTT,38.684703999999996,-85.768875
County,Indiana,FRANKLIN,39.409762,-85.066964
County,Indiana,BENTON,40.617615,-87.31641
County,Indiana,LAWRENCE,38.86306,-86.48269
County,Indiana,JEFFERSON,38.735718,-85.37574000000001
County,Indiana,HENDRICKS,39.768749,-86.510286
County,Indiana,STARKE,41.298477,-86.62200000000001
County,Indiana,CLARK,38.276726000000004,-85.73727
County,Indiana,MONROE,39.16861,-86.534874
County,Indiana,FULTON,41.065822999999995,-86.21438
County,Indiana,DUBOIS,38.385845,-86.92831
County,Indiana,RANDOLPH,40.170464,-84.98039
County,Indiana,SPENCER,37.883904,-87.04615
County,Indiana,HARRISON,38.186440000000005,-86.10368100000001
County,Indiana,BARTHOLOMEW,39.200375,-85.91906
County,Indiana,TIPTON,40.28091,-86.041565
County,Indiana,LA PORTE,41.549013,-86.744739
County,Indiana,WAYNE,39.863091,-85.00673499999999
County,Indiana,DELAWARE,40.194565000000004,-85.38653599999999
County,Indiana,GIBSON,38.357185,-87.56729
County,Indiana,HOWARD,40.476279999999996,-86.155525
County,Indiana,KNOX,38.643105,-87.52594
County,Indiana,CLAY,39.523907,-87.120094
County,Indiana,UNION,39.635426,-84.92835
County,Indiana,WELLS,40.733032,-85.19433599999999
County,Indiana,SHELBY,39.52082,-85.778175
County,Indiana,PULASKI,41.05055,-86.603546
County,Indiana,ALLEN,41.091854999999995,-85.07223
County,Indiana,OHIO,38.940527,-84.964299
County,Indiana,WASHINGTON,38.59752,-86.0918
County,Indiana,KOSCIUSKO,41.2391,-85.85585999999999
County,Indiana,MARTIN,38.705321999999995,-86.801847
County,Indiana,GRANT,40.557896,-85.6612
County,Indiana,DEKALB,41.366367,-85.054344
County,Indiana,CASS,40.753799,-86.355168
County,Indiana,CLINTON,40.27968,-86.50957
County,Indiana,VANDERBURGH,38.011547,-87.540665
County,Indiana,POSEY,37.93618,-87.914764
County,Indiana,MADISON,40.10869,-85.67042
County,Indiana,MARSHALL,41.325003,-86.269036
County,Indiana,ORANGE,38.556114,-86.466995
County,Indiana,HENRY,39.93183,-85.37165999999999
County,Indiana,TIPPECANOE,40.448170000000005,-86.88045
County,Indiana,JENNINGS,38.996234,-85.628111
County,Indiana,CARROLL,40.58524,-86.67635
County,Indiana,JACKSON,38.911957,-86.042516
County,Indiana,CRAWFORD,38.289433,-86.440871
County,Indiana,NEWTON,40.962399,-87.402172
County,Indiana,PORTER,41.444218,-87.027214
County,Indiana,FAYETTE,39.640503,-85.14049
County,Indiana,VERMILLION,39.854045,-87.462071
County,Indiana,WHITLEY,41.155937,-85.48844
County,Indiana,GREENE,39.0486,-87.005245
County,Indiana,SWITZERLAND,38.74819,-85.06934
County,Indiana,HUNTINGTON,40.88037,-85.490814
County,Indiana,BROWN,39.192585,-86.23940999999999
County,Indiana,JOHNSON,39.477665,-86.08667
County,Indiana,VIGO,39.467476,-87.41535
County,Indiana,WHITE,40.75095,-86.864293
County,Indiana,NOBLE,41.400565,-85.417697
County,Indiana,DAVIESS,38.65781,-87.17126999999999
County,Indiana,HAMILTON,40.052868,-85.995735
County,Indiana,PIKE,38.489563000000004,-87.282425
County,Indiana,ELKHART,41.62335,-85.981346
County,Mississippi,NESHOBA,32.771679999999996,-89.10833000000001
County,Mississippi,WAYNE,31.676039000000003,-88.647575
County,Mississippi,JONES,31.621044,-89.167262
County,Mississippi,LEFLORE,33.54979,-90.294934
County,Mississippi,JACKSON,30.458491,-88.619991
County,Mississippi,UNION,34.492767,-89.010605
County,Mississippi,TATE,34.649553000000004,-89.943105
County,Mississippi,HOLMES,33.125941999999995,-90.091197
County,Mississippi,SCOTT,32.354584,-89.485466
County,Mississippi,PIKE,31.177516999999998,-90.397725
County,Mississippi,COAHOMA,34.22867,-90.603165
County,Mississippi,ALCORN,34.886648,-88.581014
County,Mississippi,YALOBUSHA,34.030666,-89.703807
County,Mississippi,LAUDERDALE,32.365,-88.69815
County,Mississippi,BOLIVAR,33.799278,-90.884476
County,Mississippi,OKTIBBEHA,33.422313,-88.87615100000001
County,Mississippi,HANCOCK,30.391471999999997,-89.479964
County,Mississippi,CHOCTAW,33.31367,-89.1848
County,Mississippi,TIPPAH,34.730979999999995,-88.94985
County,Mississippi,MONTGOMERY,33.500714,-89.639625
County,Mississippi,STONE,30.790184000000004,-89.112297
County,Mississippi,LEE,34.26119,-88.70100000000001
County,Mississippi,DESOTO,34.821598,-89.99489
County,Mississippi,HINDS,32.267922999999996,-90.4659
County,Mississippi,CALHOUN,33.936634000000005,-89.337114
County,Mississippi,NEWTON,32.40197,-89.118412
County,Mississippi,TALLAHATCHIE,33.955890999999994,-90.172833
County,Mississippi,WALTHALL,31.116783,-90.141716
County,Mississippi,CLAY,33.661733,-88.783326
County,Mississippi,PERRY,31.169307,-88.988755
County,Mississippi,MADISON,32.643322,-90.02301999999999
County,Mississippi,JASPER,32.016989,-89.11943000000001
County,Mississippi,MARION,31.250826,-89.83343
County,Mississippi,AMITE,31.203933000000003,-90.795542
County,Mississippi,GEORGE,30.855431,-88.642268
County,Mississippi,SHARKEY,32.89249,-90.827388
County,Mississippi,WINSTON,33.078724,-89.037391
County,Mississippi,ITAWAMBA,34.272846,-88.40914000000001
County,Mississippi,WEBSTER,33.612048,-89.283836
County,Mississippi,KEMPER,32.750136,-88.625631
County,Mississippi,NOXUBEE,33.106106,-88.56108
County,Mississippi,FORREST,31.188579999999998,-89.259447
County,Mississippi,COVINGTON,31.633331,-89.548897
County,Mississippi,PRENTISS,34.657475,-88.53311
County,Mississippi,CARROLL,33.440795,-89.918887
County,Mississippi,JEFFERSON,31.733633,-91.043878
County,Mississippi,HARRISON,30.372425,-89.09031999999999
County,Mississippi,SUNFLOWER,33.447773,-90.63238
County,Mississippi,QUITMAN,34.252833,-90.290171
County,Mississippi,LAWRENCE,31.550009000000003,-90.10753000000001
County,Mississippi,WARREN,32.351593,-90.87819
County,Mississippi,ADAMS,31.559796999999996,-91.40519
County,Mississippi,LOWNDES,33.471424,-88.439723
County,Mississippi,ISSAQUENA,32.754977000000004,-90.988552
County,Mississippi,SIMPSON,31.902504999999998,-89.917709
County,Mississippi,ATTALA,33.05956,-89.590065
County,Mississippi,GREENE,31.212845,-88.634811
County,Mississippi,TUNICA,34.69993,-90.38428
County,Mississippi,MARSHALL,34.76619,-89.504231
County,Mississippi,CLARKE,32.048448,-88.685964
County,Mississippi,PEARL RIVER,30.842878000000002,-89.53524
County,Mississippi,FRANKLIN,31.477797999999996,-90.895884
County,Mississippi,LAFAYETTE,34.367496,-89.523125
County,Mississippi,WILKINSON,31.160249,-91.325567
County,Mississippi,LEAKE,32.753268,-89.522568
County,Mississippi,JEFFERSON DAVIS,31.565195000000003,-89.826175
County,Mississippi,WASHINGTON,33.273131,-90.94443000000001
County,Mississippi,COPIAH,31.866915000000002,-90.448758
County,Mississippi,LINCOLN,31.535216,-90.45356600000001
County,Mississippi,PONTOTOC,34.227081,-89.037239
County,Mississippi,RANKIN,32.273827000000004,-89.98623
County,Mississippi,CHICKASAW,33.920464,-89.023445
County,Mississippi,HUMPHREYS,33.17609,-90.48877
County,Mississippi,TISHOMINGO,34.811413,-88.20161
County,Mississippi,CLAIBORNE,31.97281,-90.915424
County,Mississippi,LAMAR,31.197135,-89.51495200000001
County,Mississippi,PANOLA,34.365204999999996,-89.963065
County,Mississippi,SMITH,32.019028999999996,-89.494877
County,Mississippi,GRENADA,33.785313,-89.803795
County,Mississippi,BENTON,34.810773,-89.200029
County,Mississippi,MONROE,33.890029999999996,-88.485038
County,Mississippi,YAZOO,32.765675,-90.387928
County,Montana,LAKE,47.692303,-114.161674
County,Montana,CHOUTEAU,47.886837,-110.43618899999998
County,Montana,MISSOULA,47.027263,-113.89268100000001
County,Montana,TETON,47.819035,-112.281725
County,Montana,RICHLAND,47.715847,-104.15856
County,Montana,PARK,45.421904999999995,-110.532798
County,Montana,GALLATIN,45.673363,-111.06
County,Montana,JEFFERSON,46.124381,-112.05886100000001
County,Montana,TREASURE,46.209558,-107.280369
County,Montana,CARTER,45.516825,-104.51532399999999
County,Montana,PHILLIPS,48.250155,-107.92883300000001
County,Montana,SWEET GRASS,45.81306,-109.94131200000001
County,Montana,GLACIER,48.632977000000004,-112.326454
County,Montana,PRAIRIE,46.852434,-105.375808
County,Montana,SHERIDAN,48.778225,-104.55745
County,Montana,GRANITE,46.395358,-113.425683
County,Montana,POWDER RIVER,45.408910999999996,-105.555245
County,Montana,WIBAUX,46.962965999999994,-104.274518
County,Montana,DEER LODGE,46.098893,-113.137602
County,Montana,BLAINE,48.428282,-108.967648
County,Montana,MADISON,45.319288,-111.917328
County,Montana,MINERAL,47.155213,-115.06455
County,Montana,FERGUS,47.222969,-109.22323700000001
County,Montana,ROSEBUD,46.161718,-106.70198899999998
County,Montana,LINCOLN,48.39156,-115.55349
County,Montana,BEAVERHEAD,45.215897,-112.63472
County,Montana,MUSSELSHELL,46.449062,-108.54188500000001
County,Montana,RAVALLI,46.244923,-114.15698
County,Montana,FLATHEAD,48.189655,-114.3104
County,Montana,GARFIELD,47.281174,-106.982212
County,Montana,TOOLE,48.645052,-111.733493
County,Montana,CASCADE,47.316443,-111.350571
County,Montana,LEWIS AND CLARK,46.586452,-112.03652
County,Montana,PETROLEUM,47.141917,-108.226575
County,Montana,CARBON,45.224475,-109.02855100000001
County,Montana,STILLWATER,45.658928,-109.38215600000001
County,Montana,GOLDEN VALLEY,46.380624,-109.174586
County,Montana,JUDITH BASIN,47.032558,-110.30532
County,Montana,DANIELS,48.794429,-105.54173899999999
County,Montana,VALLEY,48.34998,-106.67051399999998
County,Montana,DAWSON,47.131040000000006,-104.686195
County,Montana,BIG HORN,45.407869,-107.51816299999999
County,Montana,SANDERS,47.756469,-115.180225
County,Montana,PONDERA,48.169059999999995,-111.9472
County,Montana,MCCONE,47.629628000000004,-105.757222
County,Montana,WHEATLAND,46.497046999999995,-109.857147
County,Montana,SILVER BOW,46.011528000000006,-112.540474
County,Montana,BROADWATER,46.330928,-111.496597
County,Montana,HILL,48.631959,-110.106321
County,Montana,MEAGHER,46.585706,-110.92178100000001
County,Montana,LIBERTY,48.559653999999995,-111.036924
County,Montana,YELLOWSTONE,45.936987,-108.276656
County,Montana,POWELL,46.39975,-112.73353600000002
County,Montana,ROOSEVELT,48.282747,-104.99517
County,Montana,FALLON,46.318184,-104.40571800000001
County,Montana,CUSTER,46.407646,-105.84556
County,Virginia,YORK,37.220914,-76.395533
County,Virginia,CHARLOTTE,37.052234999999996,-78.63804
County,Virginia,BOTETOURT,37.553005,-79.804564
County,Virginia,HENRICO,37.43752,-77.300333
County,Virginia,AMELIA,37.331927,-77.977462
County,Virginia,DINWIDDIE,37.073498,-77.635492
County,Virginia,MIDDLESEX,37.606975,-76.528082
County,Virginia,LANCASTER,37.769844,-76.46544
County,Virginia,SUSSEX,36.926645,-77.259732
County,Virginia,PRINCE GEORGE,37.222153000000006,-77.28560999999999
County,Virginia,CHARLES CITY,37.361053999999996,-77.05417
County,Virginia,GLOUCESTER,37.416084000000005,-76.52996
County,Virginia,RUSSELL,36.93342,-82.095934
County,Virginia,NORTHUMBERLAND,37.856974,-76.379687
County,Virginia,ALBEMARLE,38.024184000000005,-78.553506
County,Virginia,ALLEGHANY,37.792618,-79.99534
County,Virginia,BRUNSWICK,36.764531,-77.860916
County,Virginia,ESSEX,37.939479999999996,-76.94187099999999
County,Virginia,STAFFORD,38.415386,-77.454872
County,Virginia,CARROLL,36.731951,-80.727838
County,Virginia,GILES,37.326427,-80.735085
County,Virginia,LEE,36.701721,-83.130112
County,Virginia,SURRY,37.119761,-76.880172
County,Virginia,SCOTT,36.712778,-82.61362700000001
County,Virginia,NOTTOWAY,37.143695,-78.052162
County,Virginia,ROCKBRIDGE,37.804522999999996,-79.42585
County,Virginia,CUMBERLAND,37.520189,-78.252836
County,Virginia,ORANGE,38.250439,-78.00998
County,Virginia,PULASKI,37.047714,-80.77798
County,Virginia,FREDERICK,39.184128,-78.16244
County,Virginia,KING GEORGE,38.266056,-77.179695
County,Virginia,APPOMATTOX,37.370725,-78.81094
County,Virginia,LOUDOUN,39.10288,-77.55814000000001
County,Virginia,BEDFORD,37.311316999999995,-79.50447
County,Virginia,WISE,36.974561,-82.62156
County,Virginia,PRINCE WILLIAM,38.701119,-77.479579
County,Virginia,AMHERST,37.630362,-79.147848
County,Virginia,KING AND QUEEN,37.71437,-76.901863
County,Virginia,ROCKINGHAM,38.511257,-78.876307
County,Virginia,FRANKLIN,36.99557,-79.88817
County,Virginia,JAMES CITY,37.324427,-76.778319
County,Virginia,PAGE,38.664318,-78.46461
County,Virginia,DICKENSON,37.137081,-82.34920799999999
County,Virginia,MONTGOMERY,37.129622999999995,-80.40850999999999
County,Virginia,WYTHE,36.901471,-81.084209
County,Virginia,LOUISA,37.971681,-77.95917800000001
County,Virginia,BLAND,37.130612,-81.125853
County,Virginia,ROANOKE,37.320732,-80.02192
County,Virginia,LUNENBURG,36.945757,-78.242313
County,Virginia,PITTSYLVANIA,36.821721000000004,-79.39850200000001
County,Virginia,GREENE,38.285507,-78.4199
County,Virginia,ARLINGTON,38.889953999999996,-77.08372
County,Virginia,FLUVANNA,37.830576,-78.284435
County,Virginia,NEW KENT,37.502909,-76.982857
County,Virginia,AUGUSTA,38.167807,-79.146682
County,Virginia,WASHINGTON,36.717323,-82.00555
County,Virginia,GREENSVILLE,36.680225,-77.560261
County,Virginia,CRAIG,37.473129,-80.231734
County,Virginia,RICHMOND,37.942894,-76.730561
County,Virginia,ISLE OF WIGHT,36.901418,-76.70756899999999
County,Virginia,MADISON,38.412059,-78.276961
County,Virginia,FLOYD,36.91122,-80.3202
County,Virginia,NELSON,37.790048999999996,-78.87935300000001
County,Virginia,WESTMORELAND,38.109238,-76.804073
County,Virginia,RAPPAHANNOCK,38.684521999999994,-78.168824
County,Virginia,HALIFAX,36.766461,-78.939614
County,Virginia,CULPEPER,38.485929999999996,-77.956476
County,Virginia,FAUQUIER,38.744103,-77.821585
County,Virginia,PRINCE EDWARD,37.224880999999996,-78.432957
County,Virginia,CLARKE,39.115864,-77.991226
County,Virginia,NORTHAMPTON,37.302628999999996,-75.923868
County,Virginia,MATHEWS,37.425348,-76.26880799999999
County,Virginia,SPOTSYLVANIA,38.182311,-77.65628000000001
County,Virginia,BUCHANAN,37.26812,-82.038151
County,Virginia,HIGHLAND,38.356671999999996,-79.56795799999999
County,Virginia,WARREN,38.908187,-78.207131
County,Virginia,HANOVER,37.760165,-77.490992
County,Virginia,CAROLINE,38.030319,-77.35234799999999
County,Virginia,SHENANDOAH,38.856204,-78.573987
County,Virginia,FAIRFAX,38.84565,-77.31145500000001
County,Virginia,POWHATAN,37.549403999999996,-77.91285500000001
County,Virginia,GRAYSON,36.656303,-81.225337
County,Virginia,PATRICK,36.667327,-80.286141
County,Virginia,ACCOMACK,37.765944,-75.757807
County,Virginia,HENRY,36.741,-79.89156
County,Virginia,SOUTHAMPTON,36.720172999999996,-77.10385600000001
County,Virginia,MECKLENBURG,36.687256,-78.368959
County,Virginia,BUCKINGHAM,37.573928,-78.529169
County,Virginia,KING WILLIAM,37.708259999999996,-77.091054
County,Virginia,CAMPBELL,37.210151,-79.095428
County,Virginia,TAZEWELL,37.125395000000005,-81.562924
County,Virginia,SMYTH,36.833374,-81.52013000000001
County,Virginia,CHESTERFIELD,37.378434000000006,-77.585847
County,Virginia,BATH,38.068988,-79.73289799999999
County,Virginia,GOOCHLAND,37.724166,-77.914273
County,Alabama,TALLAPOOSA,32.814243,-85.77444
County,Alabama,PICKENS,33.296808,-88.096878
County,Alabama,MACON,32.40025,-85.63693
County,Alabama,HOUSTON,31.224411,-85.393456
County,Alabama,ETOWAH,34.015840000000004,-86.011925
County,Alabama,BIBB,32.939995,-87.11683000000001
County,Alabama,COOSA,32.931445000000004,-86.243482
County,Alabama,LOWNDES,32.147888,-86.650586
County,Alabama,PIKE,31.80726,-85.972015
County,Alabama,ESCAMBIA,31.106821000000004,-87.071945
County,Alabama,JACKSON,34.67283,-86.03464
County,Alabama,TALLADEGA,33.369277000000004,-86.17580500000001
County,Alabama,BARBOUR,31.886034000000002,-85.4849
County,Alabama,LAMAR,33.787085,-88.08743100000001
County,Alabama,COVINGTON,31.313370000000003,-86.50222
County,Alabama,SUMTER,32.597481,-88.200057
County,Alabama,WINSTON,34.155888,-87.364147
County,Alabama,CRENSHAW,31.732826,-86.319222
County,Alabama,FRANKLIN,34.441989,-87.842814
County,Alabama,BALDWIN,30.884958,-87.77505500000001
County,Alabama,MARENGO,32.247591,-87.79109100000001
County,Alabama,MORGAN,34.454484,-86.846402
County,Alabama,MADISON,34.730453000000004,-86.58588
County,Alabama,FAYETTE,33.685856,-87.83185999999999
County,Alabama,CULLMAN,34.131923,-86.86926700000001
County,Alabama,AUTAUGA,32.4632,-86.47712
County,Alabama,COFFEE,31.402258000000003,-85.989602
County,Alabama,PERRY,32.639005,-87.29382700000001
County,Alabama,BUTLER,31.751666999999998,-86.681969
County,Alabama,CALHOUN,33.771706,-85.822513
County,Alabama,MONTGOMERY,32.20365,-86.20383100000001
County,Alabama,DALE,31.430653999999997,-85.609476
County,Alabama,MARSHALL,34.3587,-86.29298
County,Alabama,CLEBURNE,33.671964,-85.516126
County,Alabama,GREENE,32.844497,-87.9642
County,Alabama,WASHINGTON,31.405216999999997,-88.197564
County,Alabama,MOBILE,30.684571999999996,-88.196568
County,Alabama,CHAMBERS,32.89985,-85.40123
County,Alabama,DALLAS,32.33354,-87.114356
County,Alabama,CLAY,33.267809,-85.862051
County,Alabama,GENEVA,31.092391999999997,-85.821011
County,Alabama,MONROE,31.580332000000002,-87.383266
County,Alabama,MARION,34.138219,-87.881551
County,Alabama,WILCOX,31.990371999999997,-87.302216
County,Alabama,DEKALB,34.460929,-85.80399200000001
County,Alabama,CONECUH,31.435986,-86.95452
County,Alabama,WALKER,33.832783,-87.276886
County,Alabama,CHEROKEE,34.163456,-85.66378
County,Alabama,RANDOLPH,33.296475,-85.46406800000001
County,Alabama,JEFFERSON,33.553444,-86.896536
County,Alabama,LIMESTONE,34.81945,-86.96882
County,Alabama,SHELBY,33.262937,-86.678104
County,Alabama,LAUDERDALE,34.904121999999994,-87.650997
County,Alabama,CLARKE,31.685521,-87.818624
County,Alabama,HENRY,31.516978,-85.239971
County,Alabama,TUSCALOOSA,33.290202,-87.52286
County,Alabama,COLBERT,34.733059999999995,-87.70358
County,Alabama,ELMORE,32.597229,-86.142738
County,Alabama,LEE,32.604064,-85.353048
County,Alabama,BULLOCK,32.14111,-85.71614
County,Alabama,RUSSELL,32.289811,-85.18698
County,Alabama,CHILTON,32.84005,-86.62905
County,Alabama,ST CLAIR,33.712963,-86.315663
County,Alabama,CHOCTAW,31.990996999999997,-88.248908
County,Alabama,LAWRENCE,34.51096,-87.2851
County,Alabama,BLOUNT,33.929085,-86.4896
County,Alabama,HALE,32.752796000000004,-87.62306099999999
County,Arkansas,MILLER,33.39993,-94.02271
County,Arkansas,LAWRENCE,36.070007000000004,-90.95785500000001
County,Arkansas,BAXTER,36.28071,-92.330438
County,Arkansas,STONE,35.856989,-92.14049399999999
County,Arkansas,NEVADA,33.666699,-93.305072
County,Arkansas,GARLAND,34.504906,-93.05932
County,Arkansas,ST FRANCIS,35.014438,-90.742138
County,Arkansas,FAULKNER,35.088737,-92.44250500000001
County,Arkansas,WOODRUFF,35.287290000000006,-91.36511999999999
County,Arkansas,MONTGOMERY,34.545652000000004,-93.664147
County,Arkansas,HOWARD,34.083064,-93.990931
County,Arkansas,BRADLEY,33.614407,-92.06419
County,Arkansas,CONWAY,35.1585,-92.768936
County,Arkansas,POPE,35.27959,-93.10818499999999
County,Arkansas,LOGAN,35.288918,-93.734955
County,Arkansas,JACKSON,35.596605,-91.223178
County,Arkansas,UNION,33.210384000000005,-92.63095
County,Arkansas,CLARK,34.11872,-93.05244
County,Arkansas,PERRY,34.946363,-92.926877
County,Arkansas,SEBASTIAN,35.386814,-94.42259
County,Arkansas,CROSS,35.223557,-90.786934
County,Arkansas,MARION,36.266656,-92.678588
County,Arkansas,ASHLEY,33.22701,-91.79664
County,Arkansas,HEMPSTEAD,33.728611,-93.665809
County,Arkansas,NEWTON,35.910061999999996,-93.21508399999999
County,Arkansas,DALLAS,33.967822999999996,-92.653999
County,Arkansas,LEE,34.774547999999996,-90.75726
County,Arkansas,SALINE,34.556995,-92.57763
County,Arkansas,POLK,34.586659999999995,-94.238434
County,Arkansas,COLUMBIA,33.223038,-93.232843
County,Arkansas,SEVIER,33.994608,-94.24329
County,Arkansas,WHITE,35.254721999999994,-91.753158
County,Arkansas,FRANKLIN,35.508573,-93.887672
County,Arkansas,HOT SPRING,34.356274,-92.80937
County,Arkansas,CALHOUN,33.56046,-92.513879
County,Arkansas,LITTLE RIVER,33.67288,-94.13271
County,Arkansas,CRITTENDEN,35.173553000000005,-90.19129000000001
County,Arkansas,JEFFERSON,34.277695,-91.930701
County,Arkansas,JOHNSON,35.573359,-93.46632199999999
County,Arkansas,MADISON,36.012545,-93.724053
County,Arkansas,GREENE,36.079190000000004,-90.54762
County,Arkansas,OUACHITA,33.591158,-92.87841800000001
County,Arkansas,PULASKI,34.724297,-92.306465
County,Arkansas,POINSETT,35.58099,-90.71705
County,Arkansas,CLEVELAND,33.893201,-92.188714
County,Arkansas,INDEPENDENCE,35.737499,-91.559942
County,Arkansas,YELL,34.997713,-93.408303
County,Arkansas,ARKANSAS,34.500004,-91.55133000000001
County,Arkansas,CARROLL,36.35576,-93.548454
County,Arkansas,SCOTT,34.858869,-94.063641
County,Arkansas,DESHA,33.828748,-91.244427
County,Arkansas,SHARP,36.173398999999996,-91.471069
County,Arkansas,FULTON,36.383447,-91.819245
County,Arkansas,PIKE,34.158190999999995,-93.658659
County,Arkansas,CRAWFORD,35.583040999999994,-94.23622399999999
County,Arkansas,BENTON,36.337825,-94.256187
County,Arkansas,WASHINGTON,36.034187,-94.17598000000001
County,Arkansas,MISSISSIPPI,35.766943,-90.05220899999999
County,Arkansas,LINCOLN,33.939323,-91.84514
County,Arkansas,RANDOLPH,36.252094,-90.95636999999999
County,Arkansas,LONOKE,34.78607,-91.89905999999999
County,Arkansas,LAFAYETTE,33.24066,-93.611643
County,Arkansas,CLEBURNE,35.48342,-92.03950999999999
County,Arkansas,CHICOT,33.331024,-91.28178
County,Arkansas,IZARD,36.094879,-91.913625
County,Arkansas,GRANT,34.306824,-92.40039
County,Arkansas,DREW,33.626446,-91.79111
County,Arkansas,SEARCY,35.909659999999995,-92.69935100000001
County,Arkansas,PRAIRIE,34.977436,-91.49404
County,Arkansas,CRAIGHEAD,35.828268,-90.630411
County,Arkansas,CLAY,36.367302,-90.418704
County,Arkansas,MONROE,34.69242,-91.31478
County,Arkansas,PHILLIPS,34.425841999999996,-90.848386
County,Arkansas,BOONE,36.304308,-93.079204
County,Arkansas,VAN BUREN,35.582959,-92.515977
County,North Carolina,ANSON,34.974996000000004,-80.109959
County,North Carolina,BURKE,35.746182,-81.70618
County,North Carolina,WILSON,35.700351,-77.92160200000001
County,North Carolina,CHEROKEE,35.136233000000004,-84.061308
County,North Carolina,ONSLOW,34.751057,-77.43164
County,North Carolina,SCOTLAND,34.840022999999995,-79.477337
County,North Carolina,HARNETT,35.368635,-78.87161
County,North Carolina,DARE,35.606269,-75.76753599999999
County,North Carolina,JOHNSTON,35.513397999999995,-78.36731
County,North Carolina,MADISON,35.86408,-82.712731
County,North Carolina,POLK,35.277901,-82.167621
County,North Carolina,SAMPSON,34.995235,-78.30078
County,North Carolina,BUNCOMBE,35.59564,-82.56017
County,North Carolina,WILKES,36.145123,-81.16558
County,North Carolina,NORTHAMPTON,36.421774,-77.398352
County,North Carolina,ASHE,36.420254,-81.45915
County,North Carolina,CURRITUCK,36.401684,-76.01980999999999
County,North Carolina,MARTIN,35.841059,-77.11286700000001
County,North Carolina,RANDOLPH,35.670483000000004,-79.83208499999999
County,North Carolina,JACKSON,35.379642,-83.223495
County,North Carolina,MITCHELL,36.015045,-82.15813399999999
County,North Carolina,HAYWOOD,35.470844,-83.00406
County,North Carolina,PERSON,36.386336,-78.965644
County,North Carolina,DAVIE,35.89376,-80.561844
County,North Carolina,RUTHERFORD,35.370090000000005,-81.95822
County,North Carolina,LEE,35.476075,-79.17222
County,North Carolina,BRUNSWICK,34.038754,-78.227765
County,North Carolina,CATAWBA,35.663182,-81.214151
County,North Carolina,WAYNE,35.362747,-78.004819
County,North Carolina,CUMBERLAND,35.051033000000004,-78.8771
County,North Carolina,PAMLICO,35.147473,-76.66506899999999
County,North Carolina,HENDERSON,35.314953,-82.459854
County,North Carolina,ALEXANDER,35.920951,-81.17746700000001
County,North Carolina,TRANSYLVANIA,35.210095,-82.816696
County,North Carolina,ALLEGHANY,36.489356,-81.132299
County,North Carolina,JONES,35.03216,-77.356443
County,North Carolina,CHATHAM,35.704994,-79.25145400000001
County,North Carolina,WATAUGA,36.235371,-81.709919
County,North Carolina,ORANGE,36.0745,-79.09902
County,North Carolina,CRAVEN,35.118179,-77.082541
County,North Carolina,TYRRELL,35.87042,-76.165345
County,North Carolina,HERTFORD,36.363517,-76.981616
County,North Carolina,ROWAN,35.66859,-80.46837
County,North Carolina,PITT,35.591095,-77.372376
County,North Carolina,DUPLIN,34.934403,-77.933543
County,North Carolina,HOKE,35.017233000000004,-79.241964
County,North Carolina,LINCOLN,35.487825,-81.225176
County,North Carolina,CARTERET,34.858313,-76.526967
County,North Carolina,PENDER,34.512556,-77.88810600000001
County,North Carolina,COLUMBUS,34.260471,-78.63637800000001
County,North Carolina,GREENE,35.451164,-77.676994
County,North Carolina,SURRY,36.415416,-80.686463
County,North Carolina,WASHINGTON,35.844589,-76.572334
County,North Carolina,DURHAM,36.036589,-78.87791899999999
County,North Carolina,CAMDEN,36.342344,-76.162488
County,North Carolina,GRANVILLE,36.311695,-78.588844
County,North Carolina,HYDE,35.408157,-76.153687
County,North Carolina,GASTON,35.293344,-81.177256
County,North Carolina,PERQUIMANS,36.178259999999995,-76.404269
County,North Carolina,LENOIR,35.240068,-77.63551
County,North Carolina,CASWELL,36.393097,-79.332546
County,North Carolina,CLEVELAND,35.33463,-81.557114
County,North Carolina,EDGECOMBE,35.917055,-77.602655
County,North Carolina,GRAHAM,35.348364000000004,-83.830915
County,North Carolina,WARREN,36.398105,-78.099899
County,North Carolina,ALAMANCE,36.041973999999996,-79.399935
County,North Carolina,SWAIN,35.568849,-83.465614
County,North Carolina,NEW HANOVER,34.324020000000004,-77.89272
County,North Carolina,CLAY,35.052997,-83.752264
County,North Carolina,IREDELL,35.806356,-80.874545
County,North Carolina,AVERY,36.072894,-81.920363
County,North Carolina,GATES,36.442135,-76.70235500000001
County,North Carolina,RICHMOND,34.937057,-79.77315
County,North Carolina,FORSYTH,36.132466,-80.256961
County,North Carolina,YANCEY,35.889505,-82.30398000000001
County,North Carolina,MONTGOMERY,35.358738,-79.8937
County,North Carolina,BLADEN,34.591938,-78.539489
County,North Carolina,WAKE,35.789846000000004,-78.650624
County,North Carolina,UNION,34.991501,-80.53013100000001
County,North Carolina,MCDOWELL,35.6641,-82.03428000000001
County,North Carolina,YADKIN,36.158765,-80.665164
County,North Carolina,CABARRUS,35.387845,-80.552868
County,North Carolina,NASH,35.965945,-77.987555
County,North Carolina,CHOWAN,36.127288,-76.60207
County,North Carolina,BEAUFORT,35.543403999999995,-77.05421
County,North Carolina,GUILFORD,36.079065,-79.78866500000001
County,North Carolina,STANLY,35.349327,-80.19811
County,North Carolina,GASTON,35.293344,-81.177256
County,North Carolina,ROCKINGHAM,36.38109,-79.782818
County,North Carolina,PASQUOTANK,36.30086,-76.22274
County,North Carolina,FRANKLIN,36.088241,-78.28309
County,North Carolina,ROBESON,34.591152,-79.05221
County,North Carolina,STOKES,36.393829,-80.26598299999999
County,North Carolina,DAVIDSON,35.825264000000004,-80.2548
County,North Carolina,HALIFAX,36.251438,-77.64484200000001
County,North Carolina,BERTIE,36.06133,-76.962367
County,North Carolina,MOORE,35.310163,-79.480664
County,North Carolina,VANCE,36.365481,-78.405434
County,North Carolina,CALDWELL,35.893574,-81.571625
County,North Carolina,MACON,35.19627,-83.37150600000001
County,North Dakota,MORTON,46.82736,-100.89153
County,North Dakota,KIDDER,46.935385,-99.742727
County,North Dakota,BOWMAN,46.183228,-103.396614
County,North Dakota,BILLINGS,47.009283,-103.364924
County,North Dakota,DIVIDE,48.814709,-103.498076
County,North Dakota,STUTSMAN,46.903137,-98.70666
County,North Dakota,GRIGGS,47.463463,-98.232444
County,North Dakota,BARNES,46.94255,-98.070195
County,North Dakota,STARK,46.817031,-102.662026
County,North Dakota,NELSON,48.04156,-98.34569
County,North Dakota,BURLEIGH,46.971843,-100.462001
County,North Dakota,RICHLAND,46.266014,-96.60566999999999
County,North Dakota,EDDY,47.680157,-99.13368
County,North Dakota,MCKENZIE,47.742475,-103.403215
County,North Dakota,GRANT,46.357827,-101.639049
County,North Dakota,MCLEAN,47.653055,-101.42179399999999
County,North Dakota,PEMBINA,48.766896,-97.545405
County,North Dakota,MCHENRY,48.349827000000005,-100.40519
County,North Dakota,WARD,48.216685999999996,-101.540537
County,North Dakota,SHERIDAN,47.581359,-100.330986
County,North Dakota,GOLDEN VALLEY,46.938924,-103.844612
County,North Dakota,WILLIAMS,48.345867,-103.4874
County,North Dakota,CAVALIER,48.76123,-98.36825
County,North Dakota,TRAILL,47.446215,-97.164754
County,North Dakota,RAMSEY,48.107742,-98.867455
County,North Dakota,LAMOURE,46.464195000000004,-98.526057
County,North Dakota,ROLETTE,48.768271,-99.840463
County,North Dakota,BOTTINEAU,48.794412,-100.831257
County,North Dakota,TOWNER,48.682183,-99.24815799999999
County,North Dakota,HETTINGER,46.434939,-102.45838499999999
County,North Dakota,DUNN,47.354548,-102.61236600000001
County,North Dakota,RENVILLE,48.712781,-101.658152
County,North Dakota,BURKE,48.786453,-102.520087
County,North Dakota,STEELE,47.451062,-97.71892
County,North Dakota,BENSON,48.071743,-99.351152
County,North Dakota,EMMONS,46.284255,-100.237842
County,North Dakota,CASS,46.927003000000006,-97.252375
County,North Dakota,MOUNTRAIL,48.210291,-102.364756
County,North Dakota,ADAMS,46.096815,-102.533198
County,North Dakota,SLOPE,46.445834000000005,-103.462462
County,North Dakota,PIERCE,48.37129,-99.97709
County,North Dakota,MCINTOSH,46.117034000000004,-99.44304100000001
County,North Dakota,WELLS,47.580851,-99.671502
County,North Dakota,SIOUX,46.109282,-101.047524
County,North Dakota,WALSH,48.418118,-97.40549
County,North Dakota,OLIVER,47.118078999999994,-101.33142
County,North Dakota,FOSTER,47.464327000000004,-98.872817
County,North Dakota,MERCER,47.307175,-101.833261
County,North Dakota,DICKEY,46.107756,-98.49651800000001
County,North Dakota,LOGAN,46.469278,-99.50458499999999
County,North Dakota,RANSOM,46.449276,-97.647554
County,North Dakota,SARGENT,46.108206,-97.63003
County,North Dakota,GRAND FORKS,47.926003,-97.450851
County,Nebraska,NUCKOLLS,40.176491999999996,-98.046842
County,Nebraska,DAKOTA,42.390456,-96.562549
County,Nebraska,BOONE,41.7054,-98.06679399999999
County,Nebraska,JOHNSON,40.395457,-96.268562
County,Nebraska,RED WILLOW,40.16942,-100.468576
County,Nebraska,FILLMORE,40.525040000000004,-97.596705
County,Nebraska,SHERIDAN,42.507073999999996,-102.389698
County,Nebraska,KEARNEY,40.506269,-98.948461
County,Nebraska,ANTELOPE,42.183225,-98.058037
County,Nebraska,YORK,40.873056,-97.596742
County,Nebraska,VALLEY,41.564094,-98.98348399999999
County,Nebraska,HOLT,42.459286999999996,-98.784766
County,Nebraska,DIXON,42.485279999999996,-96.855862
County,Nebraska,MERRICK,41.169801,-98.031051
County,Nebraska,CEDAR,42.604510999999995,-97.256824
County,Nebraska,LOGAN,41.542155,-100.443665
County,Nebraska,PHELPS,40.516365,-99.40655699999999
County,Nebraska,GOSPER,40.509838,-99.824078
County,Nebraska,DUNDY,40.180165,-101.681133
County,Nebraska,BURT,41.854178999999995,-96.337746
County,Nebraska,STANTON,41.904792,-97.174724
County,Nebraska,KNOX,42.634403999999996,-97.891349
County,Nebraska,HAMILTON,40.877145,-98.02194300000001
County,Nebraska,CLAY,40.523669,-98.05105
County,Nebraska,NEMAHA,40.387448,-95.850954
County,Nebraska,CHASE,40.530390000000004,-101.694192
County,Nebraska,CUSTER,41.393893,-99.726866
County,Nebraska,ARTHUR,41.571944,-101.695898
County,Nebraska,HOOKER,41.9187,-101.11681
County,Nebraska,WASHINGTON,41.533972999999996,-96.224577
County,Nebraska,SEWARD,40.871944,-97.140383
County,Nebraska,LOUP,41.897714,-99.509764
County,Nebraska,BROWN,42.34939,-99.923176
County,Nebraska,WHEELER,41.937859,-98.522289
County,Nebraska,FRANKLIN,40.183203000000006,-98.96208
County,Nebraska,RICHARDSON,40.123743,-95.718603
County,Nebraska,COLFAX,41.574675,-97.089455
County,Nebraska,DEUEL,41.111903000000005,-102.33260899999999
County,Nebraska,THAYER,40.173845,-97.59626300000001
County,Nebraska,PERKINS,40.856065,-101.636443
County,Nebraska,HARLAN,40.178765999999996,-99.403418
County,Nebraska,BANNER,41.53975,-103.726263
County,Nebraska,BUFFALO,40.855226,-99.07498299999999
County,Nebraska,PIERCE,42.271413,-97.61099200000001
County,Nebraska,KIMBALL,41.199274,-103.703153
County,Nebraska,GARFIELD,41.905571,-98.92299799999999
County,Nebraska,SCOTTS BLUFF,41.851589000000004,-103.70586
County,Nebraska,WEBSTER,40.180646,-98.49859000000001
County,Nebraska,HOWARD,41.216851,-98.51334200000001
County,Nebraska,LANCASTER,40.783547,-96.68865799999999
County,Nebraska,BUTLER,41.226071999999995,-97.132039
County,Nebraska,MCPHERSON,41.596472999999996,-101.060237
County,Nebraska,CHERRY,42.566619,-101.07041600000001
County,Nebraska,BOYD,42.894448,-98.773022
County,Nebraska,NANCE,41.402384999999995,-97.99140799999999
County,Nebraska,CUMING,41.915865000000004,-96.788517
County,Nebraska,FRONTIER,40.530947,-100.406683
County,Nebraska,GREELEY,41.5676,-98.53056600000001
County,Nebraska,ROCK,42.413325,-99.45853000000001
County,Nebraska,KEYA PAHA,42.875479999999996,-99.718351
County,Nebraska,DODGE,41.577008,-96.645853
County,Nebraska,SAUNDERS,41.223152,-96.640923
County,Nebraska,MADISON,41.909929,-97.60685600000001
County,Nebraska,GARDEN,41.659380999999996,-102.32822900000001
County,Nebraska,HAYES,40.535786,-101.05558
County,Nebraska,THOMAS,41.848620000000004,-100.506911
County,Nebraska,PLATTE,41.576865999999995,-97.513467
County,Nebraska,DAWSON,40.867378,-99.815154
County,Nebraska,PAWNEE,40.13785,-96.245225
County,Nebraska,JEFFERSON,40.175736,-97.143103
County,Nebraska,BLAINE,41.92523,-99.990771
County,Nebraska,WAYNE,42.210746,-97.126243
County,Nebraska,CASS,40.909878000000006,-96.140609
County,Nebraska,SHERMAN,41.218742999999996,-98.972849
County,Nebraska,LINCOLN,41.050321999999994,-100.74448100000001
County,Nebraska,POLK,41.187925,-97.570663
County,Nebraska,BOX BUTTE,42.215665,-103.08782099999999
County,Nebraska,FURNAS,40.191865,-99.909663
County,Nebraska,GRANT,41.915867,-101.756875
County,Nebraska,SALINE,40.516802,-97.131755
County,Nebraska,MORRILL,41.732205,-102.990599
County,Nebraska,ADAMS,40.520632,-98.50004399999999
County,Nebraska,HITCHCOCK,40.176896,-101.044217
County,Nebraska,THURSTON,42.154061,-96.53394300000001
County,Nebraska,GAGE,40.255234,-96.683453
County,Nebraska,DOUGLAS,41.297090999999995,-96.154066
County,Nebraska,KEITH,41.194413,-101.644486
County,Nebraska,SARPY,41.115064000000004,-96.109125
County,Nebraska,CHEYENNE,41.214236,-103.01192900000001
County,Nebraska,SIOUX,42.485675,-103.744068
County,Nebraska,HALL,40.866023,-98.49800400000001
County,Nebraska,DAWES,42.711214,-103.134872
County,Nebraska,OTOE,40.637992,-96.131027
County,Arizona,MOHAVE,35.717705,-113.74968899999999
County,Arizona,APACHE,35.385084,-109.490172
County,Arizona,YUMA,32.723853999999996,-114.62336
County,Arizona,GILA,33.789618,-110.81187
County,Arizona,SANTA CRUZ,31.525733000000002,-110.845228
County,Arizona,GREENLEE,33.238872,-109.242323
County,Arizona,PIMA,32.170643,-110.94519
County,Arizona,LA PAZ,34.14631,-114.28976000000002
County,Arizona,COCHISE,31.840128999999997,-109.77516299999999
County,Arizona,NAVAJO,35.390934,-110.320908
County,Arizona,GRAHAM,32.931828,-109.87831000000001
County,Arizona,YAVAPAI,34.54184,-112.46651499999999
County,Arizona,COCONINO,35.188972,-111.64146000000001
County,Arizona,MARICOPA,33.446075,-112.07512
County,Arizona,PINAL,32.919038,-111.367005
County,New Hampshire,CARROLL,43.867567,-71.201665
County,New Hampshire,SULLIVAN,43.361188,-72.222084
County,New Hampshire,HILLSBOROUGH,43.00987,-71.54077
County,New Hampshire,BELKNAP,43.543556,-71.48343
County,New Hampshire,STRAFFORD,43.293172,-71.035889
County,New Hampshire,GRAFTON,44.115376,-72.0402
County,New Hampshire,COOS,44.49118,-71.571556
County,New Hampshire,ROCKINGHAM,43.01195,-71.051125
County,New Hampshire,CHESHIRE,42.934753,-72.27954
County,New Hampshire,MERRIMACK,43.299485,-71.68013
County,New Jersey,BERGEN,40.878440000000005,-74.04463
County,New Jersey,HUDSON,40.732777,-74.05765
County,New Jersey,SOMERSET,40.56831,-74.60975
County,New Jersey,MERCER,40.21716,-74.76352
County,New Jersey,BURLINGTON,39.875786,-74.66300600000001
County,New Jersey,GLOUCESTER,39.721019,-75.14370799999999
County,New Jersey,HUNTERDON,40.565283,-74.911969
County,New Jersey,SUSSEX,41.137423999999996,-74.691855
County,New Jersey,MIDDLESEX,40.439593,-74.407585
County,New Jersey,CAMDEN,39.945609999999995,-75.12078000000001
County,New Jersey,UNION,40.66194,-74.21678
County,New Jersey,ESSEX,40.736779999999996,-74.17651
County,New Jersey,MONMOUTH,40.262190000000004,-74.27115
County,New Jersey,CUMBERLAND,39.435013,-75.230644
County,New Jersey,MORRIS,40.858581,-74.547427
County,New Jersey,CAPE MAY,39.086141999999995,-74.847716
County,New Jersey,WARREN,40.82724,-75.07699000000001
County,New Jersey,OCEAN,39.953976000000004,-74.193436
County,New Jersey,PASSAIC,40.951809999999995,-74.21038
County,New Jersey,ATLANTIC,39.469353999999996,-74.633758
County,New Jersey,SALEM,39.57284,-75.46661999999999
County,Vermont,ADDISON,44.031248,-73.141581
County,Vermont,ORANGE,43.992090000000005,-72.42766
County,Vermont,RUTLAND,43.580844,-73.038196
County,Vermont,LAMOILLE,44.603504,-72.638355
County,Vermont,GRAND ISLE,44.801788,-73.300758
County,Vermont,WASHINGTON,44.274953000000004,-72.609475
County,Vermont,ORLEANS,44.935,-72.21162
County,Vermont,FRANKLIN,44.858964,-72.909402
County,Vermont,ESSEX,44.565365,-71.56149
County,Vermont,WINDSOR,43.588143,-72.591514
County,Vermont,CHITTENDEN,44.463328999999995,-73.069484
County,Vermont,WINDHAM,42.999143,-72.716335
County,Vermont,CALEDONIA,44.468790999999996,-72.11216800000001
County,Vermont,BENNINGTON,43.035325,-73.11146
County,New Mexico,QUAY,35.107018,-103.548071
County,New Mexico,HIDALGO,31.899658000000002,-108.745729
County,New Mexico,COLFAX,36.612961999999996,-104.640126
County,New Mexico,TAOS,36.576529,-105.63798600000001
County,New Mexico,DE BACA,34.359269,-104.36869200000001
County,New Mexico,GUADALUPE,34.932644,-104.69176999999999
County,New Mexico,OTERO,32.588776,-105.781079
County,New Mexico,ROOSEVELT,34.147217,-103.39699
County,New Mexico,SAN MIGUEL,35.476876000000004,-104.803515
County,New Mexico,EDDY,32.420414,-104.22896
County,New Mexico,CIBOLA,35.15374,-107.853935
County,New Mexico,LUNA,32.184295,-107.746922
County,New Mexico,UNION,36.488085,-103.475723
County,New Mexico,BERNALILLO,35.054002000000004,-106.66906399999999
County,New Mexico,LINCOLN,33.740941,-105.449083
County,New Mexico,SIERRA,33.119479,-107.18816100000001
County,New Mexico,RIO ARRIBA,36.509669,-106.693983
County,New Mexico,HARDING,35.85881,-103.850821
County,New Mexico,CHAVES,33.361604,-104.469837
County,New Mexico,SANDOVAL,35.685071,-106.88261899999999
County,New Mexico,MORA,35.982841,-104.921898
County,New Mexico,CURRY,34.572984000000005,-103.346055
County,New Mexico,MCKINLEY,35.50843,-108.73353600000002
County,New Mexico,SAN JUAN,36.825977,-108.02076000000001
County,New Mexico,DONA ANA,32.350912,-106.832182
County,New Mexico,SOCORRO,33.991614,-106.939003
County,New Mexico,CATRON,33.901813,-108.39209699999999
County,New Mexico,VALENCIA,34.716840000000005,-106.806582
County,New Mexico,TORRANCE,34.554466,-105.887952
County,New Mexico,LEA,32.935955,-103.341995
County,New Mexico,SANTA FE,35.513731,-105.966439
County,New Mexico,GRANT,32.783188,-108.265976
County,Florida,SANTA ROSA,30.703633,-87.014255
County,Florida,WAKULLA,30.196005,-84.377075
County,Florida,OSCEOLA,28.059027,-81.139312
County,Florida,PALM BEACH,26.673145,-80.092766
County,Florida,LAFAYETTE,29.990066,-83.17851
County,Florida,CLAY,29.987115000000003,-81.858147
County,Florida,HARDEE,27.492846000000004,-81.82158000000001
County,Florida,MARION,29.202804999999998,-82.0431
County,Florida,WALTON,30.631210999999997,-86.176614
County,Florida,MANATEE,27.481385999999997,-82.365783
County,Florida,ESCAMBIA,30.611648,-87.338948
County,Florida,BAY,30.237563,-85.631348
County,Florida,PASCO,28.307737,-82.464718
County,Florida,LAKE,28.801252,-81.73048
County,Florida,FLAGLER,29.457784999999998,-81.26104000000001
County,Florida,BAKER,30.294596000000002,-82.12483
County,Florida,HAMILTON,30.491226,-82.95106899999999
County,Florida,ST LUCIE,27.37446,-80.37097
County,Florida,JACKSON,30.789123999999997,-85.208764
County,Florida,WASHINGTON,30.779263,-85.54163
County,Florida,MADISON,30.447233,-83.470416
County,Florida,BRADFORD,29.952385999999997,-82.16729000000001
County,Florida,OKEECHOBEE,27.385592,-80.887388
County,Florida,FRANKLIN,29.810176000000002,-84.799174
County,Florida,HERNANDO,28.567911,-82.464835
County,Florida,COLUMBIA,30.221333,-82.623168
County,Florida,ST JOHNS,29.939957,-81.33715
County,Florida,BREVARD,28.607767,-80.81862
County,Florida,ORANGE,28.514435,-81.323295
County,Florida,JEFFERSON,30.504296999999998,-83.88124
County,Florida,PUTNAM,29.606006,-81.740894
County,Florida,COLLIER,26.118712,-81.40088399999999
County,Florida,HENDRY,26.539966999999997,-81.152114
County,Florida,SUMTER,28.677305,-82.11140400000001
County,Florida,BROWARD,26.193535,-80.476683
County,Florida,DESOTO,27.190580999999998,-81.806253
County,Florida,GLADES,26.95481,-81.19082
County,Florida,HILLSBOROUGH,27.90659,-82.349568
County,Florida,SUWANNEE,30.189244,-82.992754
County,Florida,POLK,27.953115000000004,-81.69278299999999
County,Florida,LEVY,29.284457,-82.783462
County,Florida,INDIAN RIVER,27.666946000000003,-80.42692
County,Florida,GULF,29.907257,-85.256537
County,Florida,OKALOOSA,30.665858,-86.59419399999999
County,Florida,PINELLAS,27.903121999999996,-82.739518
County,Florida,HIGHLANDS,27.493253999999997,-81.43645
County,Florida,TAYLOR,30.117256,-83.58206
County,Florida,NASSAU,30.605926,-81.76492900000001
County,Florida,LIBERTY,30.259849,-84.86858000000001
County,Florida,MIAMI-DADE,25.796967000000002,-80.3427
County,Florida,CALHOUN,30.443209000000003,-85.04472
County,Florida,HOLMES,30.793148,-85.67843
County,Florida,GADSDEN,30.579169,-84.612783
County,Florida,UNION,30.05428,-82.366918
County,Florida,SEMINOLE,28.690078999999997,-81.13198
County,Florida,MONROE,25.601043,-81.206777
County,Florida,ALACHUA,29.643612,-82.2908
County,Florida,LEE,26.528137,-81.86336999999999
County,Florida,CHARLOTTE,26.868933000000002,-81.941077
County,Florida,DIXIE,29.580899,-83.195666
County,Florida,SARASOTA,27.184386,-82.365835
County,Florida,VOLUSIA,29.057698,-81.161804
County,Florida,GILCHRIST,29.723456,-82.795801
County,Florida,LEON,30.439827,-84.335205
County,Florida,CITRUS,28.834253000000004,-82.32871999999999
County,Florida,MARTIN,27.175572999999996,-80.24157
County,Nevada,LYON,38.995132,-119.16176999999999
County,Nevada,NYE,36.219590000000004,-116.04245
County,Nevada,MINERAL,38.516647,-118.416279
County,Nevada,DOUGLAS,38.905128999999995,-119.60901899999999
County,Nevada,CARSON CITY,39.164536,-119.75976999999999
County,Nevada,PERSHING,40.439639,-118.409477
County,Nevada,CHURCHILL,39.525701,-118.27041899999999
County,Nevada,LINCOLN,37.634605,-114.863037
County,Nevada,STOREY,39.438385,-119.52464599999999
County,Nevada,EUREKA,39.977788000000004,-116.272208
County,Nevada,LANDER,39.900209999999994,-117.04723999999999
County,Nevada,WASHOE,39.57246,-119.80988
County,Nevada,HUMBOLDT,40.971798,-117.73326999999999
County,Nevada,ELKO,40.83335,-115.75856999999999
County,Nevada,WHITE PINE,39.418233,-114.90061200000001
County,Nevada,ESMERALDA,37.778966,-117.632382
County,Washington,STEVENS,48.390648,-117.854897
County,Washington,PACIFIC,46.556587,-123.78241899999999
County,Washington,DOUGLAS,47.735865999999994,-119.69588
County,Washington,KING,47.602222,-122.33089
County,Washington,CLALLAM,48.114964,-123.43227399999999
County,Washington,FERRY,48.473256,-118.53358899999999
County,Washington,WHATCOM,48.75403,-122.4796
County,Washington,LEWIS,46.66148,-122.969284
County,Washington,GRANT,47.213633,-119.46778799999998
County,Washington,SKAMANIA,46.024782,-121.953227
County,Washington,ASOTIN,46.181861,-117.22778100000001
County,Washington,SAN JUAN,48.508860999999996,-123.10061599999999
County,Washington,JEFFERSON,48.023865,-122.76446999999999
County,Washington,PEND OREILLE,48.543825,-117.23219099999999
County,Washington,THURSTON,46.932598,-122.82944099999999
County,Washington,LINCOLN,47.582718,-118.417667
County,Washington,FRANKLIN,46.236767,-119.09688
County,Washington,CLARK,45.771674,-122.48590300000001
County,Washington,WHITMAN,46.903321999999996,-117.522962
County,Washington,GARFIELD,46.429474,-117.53671399999999
County,Washington,PIERCE,47.254436,-122.44483999999999
County,Washington,ADAMS,47.127309999999994,-118.38181999999999
County,Washington,WAHKIAKUM,46.294638,-123.424458
County,Washington,COLUMBIA,46.32079,-117.97825
County,Washington,MASON,47.354126,-123.17385
County,Washington,KITTITAS,46.996517,-120.54883000000001
County,Washington,YAKIMA,46.456558,-120.740145
County,Washington,CHELAN,47.42257,-120.3168
County,Washington,SPOKANE,47.665245,-117.42813000000001
County,Washington,ISLAND,48.158553999999995,-122.670649
County,Washington,COWLITZ,46.143826000000004,-122.91691599999999
County,Washington,WALLA WALLA,46.254606,-118.480374
County,Washington,KITSAP,47.538002,-122.63901000000001
County,Washington,OKANOGAN,48.36527,-119.58378
County,Washington,KLICKITAT,45.821354,-120.82263
County,Washington,SKAGIT,48.418209999999995,-122.33612
County,Washington,BENTON,46.22202,-119.220474
County,Washington,GRAYS HARBOR,47.142786,-123.82704299999999
County,Washington,SNOHOMISH,48.054913,-121.76641200000002
County,New York,ULSTER,41.947216,-74.265458
County,New York,SCHOHARIE,42.591294,-74.438172
County,New York,FRANKLIN,44.594376000000004,-74.31067
County,New York,OTSEGO,42.597072999999995,-74.933784
County,New York,CHENANGO,42.489732000000004,-75.604905
County,New York,ALBANY,42.639824,-73.96266999999999
County,New York,NIAGARA,43.181637,-78.73824
County,New York,SCHENECTADY,42.809703999999996,-73.93966999999999
County,New York,RENSSELAER,42.70896,-73.70169
County,New York,LEWIS,43.782681,-75.44414
County,New York,CHEMUNG,42.091446000000005,-76.80096400000001
County,New York,PUTNAM,41.427322,-73.67724
County,New York,WARREN,43.555105,-73.838139
County,New York,TIOGA,42.178057,-76.29745600000001
County,New York,COLUMBIA,42.249664,-73.75654
County,New York,SENECA,42.782294,-76.827088
County,New York,CHAUTAUQUA,42.254875,-79.50394399999999
County,New York,ONONDAGA,43.047646,-76.147446
County,New York,LIVINGSTON,42.800175,-77.81615
County,New York,YATES,42.66487,-77.05609
County,New York,WYOMING,42.743763,-78.1326
County,New York,CORTLAND,42.597927,-76.175285
County,New York,TOMPKINS,42.495815,-76.46919
County,New York,SCHUYLER,42.376373,-76.87096
County,New York,CAYUGA,42.977413,-76.54245
County,New York,ONEIDA,43.158234,-75.3763
County,New York,MADISON,42.910026,-75.663575
County,New York,GREENE,42.217846,-73.86338
County,New York,HAMILTON,43.657879,-74.50245600000001
County,New York,CATTARAUGUS,42.251490000000004,-78.80058000000001
County,New York,SUFFOLK,40.943554,-72.69221800000001
County,New York,ORANGE,41.405544,-74.35576
County,New York,WESTCHESTER,41.09963,-73.81090999999999
County,New York,DELAWARE,42.193985999999995,-74.966728
County,New York,MONROE,43.152992,-77.61453
County,New York,ST LAWRENCE,44.488112,-75.074311
County,New York,MONTGOMERY,42.900890999999994,-74.435357
County,New York,BROOME,42.132046,-75.914276
County,New York,ONTARIO,42.889885,-77.27641
County,New York,SULLIVAN,41.720176,-74.76468
County,New York,GENESEE,43.012383,-78.2021
County,New York,SUFFOLK,40.943554,-72.69221800000001
County,New York,DUTCHESS,41.710106,-73.920654
County,New York,ALLEGANY,42.247871,-78.026115
County,New York,SARATOGA,43.017933,-73.872955
County,New York,NASSAU,40.737390000000005,-73.63861999999999
County,New York,OSWEGO,43.461443,-76.20925799999999
County,New York,FULTON,43.115609,-74.42367800000001
County,New York,JEFFERSON,43.995371,-76.053514
County,New York,STEUBEN,42.34924,-77.2951
County,New York,ERIE,42.752759000000005,-78.778192
County,New York,WASHINGTON,43.280876,-73.58645
County,New York,ORLEANS,43.502287,-78.229726
County,New York,HERKIMER,43.028564,-74.98891400000001
County,New York,WAYNE,43.458758,-77.063164
County,New York,ESSEX,44.108971000000004,-73.777573
County,New York,CLINTON,44.719184999999996,-73.46860500000001
County,New York,ROCKLAND,41.147655,-73.99469
County,South Carolina,GREENVILLE,34.852623,-82.38797
County,South Carolina,LEE,34.158640000000005,-80.251209
County,South Carolina,BEAUFORT,32.358146999999995,-80.68932
County,South Carolina,DARLINGTON,34.332184999999996,-79.962115
County,South Carolina,YORK,34.98478,-81.20186
County,South Carolina,ABBEVILLE,34.213809000000005,-82.46046
County,South Carolina,RICHLAND,34.029783,-80.896566
County,South Carolina,BARNWELL,33.260602,-81.434102
County,South Carolina,GREENWOOD,34.188038,-82.16365
County,South Carolina,LAURENS,34.483477,-82.005657
County,South Carolina,ORANGEBURG,33.436135,-80.802913
County,South Carolina,PICKENS,34.88538,-82.723376
County,South Carolina,WILLIAMSBURG,33.626463,-79.716475
County,South Carolina,HAMPTON,32.778323,-81.143362
County,South Carolina,BAMBERG,33.203021,-81.053161
County,South Carolina,MCCORMICK,33.897605,-82.316192
County,South Carolina,HORRY,33.909269,-78.976675
County,South Carolina,LEXINGTON,33.97945,-81.24931
County,South Carolina,CHEROKEE,35.049796,-81.607647
County,South Carolina,ANDERSON,34.519549,-82.638086
County,South Carolina,CHARLESTON,32.85609,-79.97933
County,South Carolina,MARLBORO,34.601805,-79.677942
County,South Carolina,JASPER,32.43059,-81.021627
County,South Carolina,EDGEFIELD,33.790043,-81.931404
County,South Carolina,SUMTER,33.92161,-80.33941
County,South Carolina,CHESTER,34.708427,-81.22275
County,South Carolina,FAIRFIELD,34.395669,-81.127001
County,South Carolina,ALLENDALE,32.979784,-81.363421
County,South Carolina,HORRY,33.909269,-78.976675
County,South Carolina,MARION,34.08362,-79.354001
County,South Carolina,DORCHESTER,33.184483,-80.57813
County,South Carolina,UNION,34.690428999999995,-81.615891
County,South Carolina,CHESTERFIELD,34.73577,-80.08515
County,South Carolina,KERSHAW,34.338356,-80.590885
County,South Carolina,AIKEN,33.566933,-81.71162
County,South Carolina,DILLON,34.390172,-79.374964
County,South Carolina,CALHOUN,33.67478,-80.78034699999999
County,South Carolina,SALUDA,34.005278000000004,-81.727903
County,South Carolina,OCONEE,34.76043,-83.073364
County,South Carolina,GEORGETOWN,33.417531,-79.29633299999999
County,South Carolina,CLARENDON,33.664682,-80.217889
County,South Carolina,LANCASTER,34.686818,-80.703688
County,South Carolina,SPARTANBURG,34.933239,-81.99105300000001
County,South Carolina,NEWBERRY,34.28973,-81.600053
County,South Carolina,BERKELEY,33.200596000000004,-80.01885
County,South Carolina,COLLETON,32.835018,-80.655244
County,South Carolina,FLORENCE,34.054146,-79.73676
County,South Dakota,DAVISON,43.70087,-98.03686
County,South Dakota,BUTTE,44.669284999999995,-103.85351
County,South Dakota,HUTCHINSON,43.33671,-97.749383
County,South Dakota,LINCOLN,43.301937,-96.59271
County,South Dakota,JACKSON,43.677506,-101.626323
County,South Dakota,HAAKON,44.282881,-101.595472
County,South Dakota,YANKTON,42.87127,-97.39376
County,South Dakota,STANLEY,44.415547,-100.749163
County,South Dakota,MARSHALL,45.737053,-97.580884
County,South Dakota,CORSON,45.69834,-101.176017
County,South Dakota,BEADLE,44.418265000000005,-98.279422
County,South Dakota,HAND,44.546713000000004,-99.004575
County,South Dakota,DOUGLAS,43.391506,-98.35843299999999
County,South Dakota,WALWORTH,45.427605,-100.027856
County,South Dakota,PENNINGTON,44.078087,-103.22213
County,South Dakota,OGLALA LAKOTA,43.345037,-102.568537
County,South Dakota,CLAY,42.779587,-96.93651
County,South Dakota,LAKE,44.005123,-97.11244
County,South Dakota,CHARLES MIX,43.206185,-98.59514300000001
County,South Dakota,ROBERTS,45.623397,-96.947551
County,South Dakota,MINER,44.021541,-97.608122
County,South Dakota,BROOKINGS,44.302963,-96.793625
County,South Dakota,TURNER,43.30867,-97.150185
County,South Dakota,JONES,43.95199,-100.686139
County,South Dakota,ZIEBACH,44.981666,-101.669224
County,South Dakota,HANSON,43.680611999999996,-97.79684499999999
County,South Dakota,FAULK,45.065476000000004,-99.153564
County,South Dakota,TODD,43.208794,-100.70766400000001
County,South Dakota,MCCOOK,43.678924,-97.362036
County,South Dakota,BRULE,43.812977000000004,-99.33027
County,South Dakota,LYMAN,43.894812,-99.841925
County,South Dakota,HYDE,44.537301,-99.492148
County,South Dakota,MOODY,44.048393,-96.595146
County,South Dakota,GREGORY,43.179097999999996,-99.20215300000001
County,South Dakota,DAY,45.332333,-97.52296
County,South Dakota,HUGHES,44.354984,-100.30259000000001
County,South Dakota,LAWRENCE,44.353669000000004,-103.79652800000001
County,South Dakota,AURORA,43.724719,-98.577587
County,South Dakota,EDMUNDS,45.41168,-99.205362
County,South Dakota,HAMLIN,44.680619,-97.178598
County,South Dakota,PERKINS,45.483387,-102.467995
County,South Dakota,CUSTER,43.684943,-103.46225
County,South Dakota,SULLY,44.722325,-100.131399
County,South Dakota,MEADE,44.414597,-103.5156
County,South Dakota,BENNETT,43.187018,-101.67743399999999
County,South Dakota,SANBORN,44.021032,-98.092105
County,South Dakota,DEWEY,45.150005,-100.85221800000001
County,South Dakota,BON HOMME,42.986031,-97.885613
County,South Dakota,MELLETTE,43.58493,-100.760598
County,South Dakota,UNION,42.685677,-96.683464
County,South Dakota,SPINK,44.87575,-98.51494
County,South Dakota,CODINGTON,44.899246000000005,-97.11475
County,South Dakota,POTTER,45.010296000000004,-99.95565
County,South Dakota,CAMPBELL,45.782241,-100.027951
County,South Dakota,FALL RIVER,43.221503999999996,-103.512102
County,South Dakota,TRIPP,43.349728999999996,-99.87621899999999
County,South Dakota,JERAULD,44.063416,-98.623188
County,South Dakota,MINNEHAHA,43.553837,-96.73019000000001
County,South Dakota,MCPHERSON,45.784248999999996,-99.211421
County,South Dakota,DEUEL,44.75629,-96.690239
County,South Dakota,HARDING,45.596612,-103.473867
County,South Dakota,BROWN,45.464905,-98.48595999999999
County,South Dakota,BUFFALO,44.044306,-99.203998
County,South Dakota,KINGSBURY,44.362969,-97.499313
County,South Dakota,GRANT,45.217934,-96.63516
County,South Dakota,CLARK,44.855211,-97.724912
County,Wisconsin,IOWA,42.972805,-90.132835
County,Wisconsin,DUNN,44.947741,-91.89771999999999
County,Wisconsin,ST CROIX,45.028959,-92.447284
County,Wisconsin,PIERCE,44.725336,-92.42627900000001
County,Wisconsin,WOOD,44.461413,-90.038825
County,Wisconsin,MILWAUKEE,43.043903,-87.901726
County,Wisconsin,ASHLAND,46.588776,-90.87849
County,Wisconsin,CLARK,44.560364,-90.59476
County,Wisconsin,CHIPPEWA,44.9403,-91.395706
County,Wisconsin,VILAS,45.919487,-89.24954
County,Wisconsin,LA CROSSE,43.81452,-91.25081999999999
County,Wisconsin,MENOMINEE,44.991304,-88.669251
County,Wisconsin,DOUGLAS,46.72193,-92.09668
County,Wisconsin,WALWORTH,42.66811,-88.541731
County,Wisconsin,RUSK,45.464275,-91.098045
County,Wisconsin,POLK,45.46803,-92.453154
County,Wisconsin,WINNEBAGO,44.085707,-88.668149
County,Wisconsin,ADAMS,43.973763,-89.767223
County,Wisconsin,LAFAYETTE,42.655578000000006,-90.130292
County,Wisconsin,PORTAGE,44.52074,-89.58133000000001
County,Wisconsin,DOOR,45.067811,-87.087936
County,Wisconsin,BURNETT,45.866878,-92.37574000000001
County,Wisconsin,LINCOLN,45.181470000000004,-89.68462
County,Wisconsin,TREMPEALEAU,44.30305,-91.358867
County,Wisconsin,WAUSHARA,44.068428000000004,-89.294304
County,Wisconsin,OCONTO,44.889057,-87.8663
County,Wisconsin,LANGLADE,45.143913,-89.154175
County,Wisconsin,SAWYER,45.864913,-91.14713
County,Wisconsin,CALUMET,44.02957,-88.169464
County,Wisconsin,MONROE,43.945175,-90.619969
County,Wisconsin,MANITOWOC,44.087933,-87.659164
County,Wisconsin,JUNEAU,43.796127,-90.07613
County,Wisconsin,SAUK,43.461117,-89.76443499999999
County,Wisconsin,DODGE,43.40635,-88.70442
County,Wisconsin,FOND DU LAC,43.754721999999994,-88.493284
County,Wisconsin,VERNON,43.599858000000005,-90.815226
County,Wisconsin,WAUKESHA,43.019308,-88.30670699999999
County,Wisconsin,BROWN,44.473960999999996,-87.995926
County,Wisconsin,RICHLAND,43.334644,-90.3864
County,Wisconsin,JEFFERSON,43.002285,-88.80604
County,Wisconsin,MARATHON,44.957127,-89.62586999999999
County,Wisconsin,SHEBOYGAN,43.750908,-87.70959
County,Wisconsin,FOREST,45.666882,-88.773225
County,Wisconsin,DANE,43.074104,-89.38086
County,Wisconsin,OUTAGAMIE,44.258904,-88.412056
County,Wisconsin,SHAWANO,44.785328,-88.60949000000001
County,Wisconsin,GRANT,42.870028000000005,-90.694229
County,Wisconsin,CRAWFORD,43.054684,-91.14654
County,Wisconsin,BUFFALO,44.389759000000005,-91.758714
County,Wisconsin,TAYLOR,45.137463000000004,-90.34299
County,Wisconsin,ONEIDA,45.64805,-89.38141
County,Wisconsin,MARINETTE,45.346899,-87.991198
County,Wisconsin,JACKSON,44.295376,-90.85096999999999
County,Wisconsin,GREEN,42.677728,-89.605639
County,Wisconsin,WASHBURN,45.892463,-91.796423
County,Wisconsin,KEWAUNEE,44.457024,-87.50588
County,Wisconsin,COLUMBIA,43.471882,-89.330472
County,Wisconsin,ROCK,42.669931,-89.075119
County,Wisconsin,FLORENCE,45.849646,-88.400322
County,Wisconsin,BAYFIELD,46.634199,-91.17728199999999
County,Wisconsin,PEPIN,44.627435999999996,-91.83489
County,Wisconsin,WAUPACA,44.478004,-88.967005
County,Wisconsin,PRICE,45.679072,-90.35965
County,Wisconsin,IRON,46.32655,-90.261298
County,Wisconsin,MARQUETTE,43.826053,-89.409095
County,Wisconsin,GREEN LAKE,43.76141,-88.987228
County,Wisconsin,KENOSHA,42.579703,-87.424898
County,Wisconsin,EAU CLAIRE,44.808,-91.50354
County,Wisconsin,WASHINGTON,43.391156,-88.232917
County,Wisconsin,OZAUKEE,43.360715,-87.496553
County,Wisconsin,RACINE,42.725666,-87.78374000000001
County,Wisconsin,BARRON,45.437191999999996,-91.852892
County,Ohio,MARION,40.614925,-83.10812
County,Ohio,LAKE,41.726603999999995,-81.24523
County,Ohio,DARKE,40.063824,-84.62892
County,Ohio,HENRY,41.391220000000004,-84.12438
County,Ohio,KNOX,40.403620000000004,-82.422393
County,Ohio,HIGHLAND,39.234936,-83.61744
County,Ohio,MEDINA,41.12811,-81.88871999999999
County,Ohio,CUYAHOGA,41.50178,-81.6981
County,Ohio,BUTLER,39.389874,-84.55556999999999
County,Ohio,CRAWFORD,40.816673,-82.93687
County,Ohio,HOCKING,39.539004999999996,-82.40839
County,Ohio,LICKING,40.05942,-82.39498
County,Ohio,WYANDOT,40.827488,-83.28093
County,Ohio,COSHOCTON,40.275055,-81.86644
County,Ohio,MAHONING,41.104008,-80.65416
County,Ohio,HOLMES,40.565309,-81.929869
County,Ohio,LAWRENCE,38.53645,-82.68337
County,Ohio,WOOD,41.360183,-83.622682
County,Ohio,BELMONT,40.017682,-80.967727
County,Ohio,TRUMBULL,41.237495,-80.81881
County,Ohio,LORAIN,41.346176,-82.13405
County,Ohio,OTTAWA,41.510643,-82.9411
County,Ohio,HANCOCK,41.03781,-83.65221
County,Ohio,BROWN,38.875282,-83.90146
County,Ohio,TUSCARAWAS,40.455643,-81.40568499999999
County,Ohio,LOGAN,40.387553000000004,-83.766343
County,Ohio,PAULDING,41.136963,-84.57705
County,Ohio,HAMILTON,39.196927,-84.544187
County,Ohio,HARDIN,40.636177,-83.60359
County,Ohio,STARK,40.814131,-81.365667
County,Ohio,ATHENS,39.329215999999995,-82.10181
County,Ohio,LUCAS,41.656345,-83.537285
County,Ohio,HARRISON,40.271587,-80.99637
County,Ohio,SUMMIT,41.07877,-81.51823399999999
County,Ohio,MUSKINGUM,39.943366999999995,-81.97869
County,Ohio,AUGLAIZE,40.561309,-84.224018
County,Ohio,MADISON,39.896607,-83.400885
County,Ohio,NOBLE,39.74354,-81.5131
